{"type": "FeatureCollection", "properties": {"apiVersion": "0.5.1", "source": "geoparser.io", "id": "KbjJB4TX4Exu2oLJ8JaD"}, "features": [{"type": "Feature", "properties": {"country": "KE", "references": [[2924, 2938]], "confidence": 1.0, "name": "United Nations", "admin1": "05", "type": "facility"}, "id": 7731766, "geometry": {"type": "Point", "coordinates": [36.7691, -1.2442]}}, {"type": "Feature", "properties": {"country": "NP", "references": [[4031, 4040]], "confidence": 1.0, "name": "Kathmandu", "admin1": "CR", "type": "capital of a political entity"}, "id": 1283240, "geometry": {"type": "Point", "coordinates": [85.3206, 27.70169]}}, {"type": "Feature", "properties": {"country": "NP", "references": [[417, 423]], "confidence": 1.0, "name": "Mak\u0101lu", "admin1": "00", "type": "mountain"}, "id": 1283087, "geometry": {"type": "Point", "coordinates": [87.08944, 27.88988]}}, {"type": "Feature", "properties": {"country": "NP", "references": [[174, 179], [554, 559], [1223, 1228], [1895, 1900], [2440, 2445], [3256, 3261], [3567, 3572]], "confidence": 1.0, "name": "Nepal", "admin1": "00", "type": "independent political entity"}, "id": 1282988, "geometry": {"type": "Point", "coordinates": [84.0, 28.0]}}, {"type": "Feature", "properties": {"country": "AU", "references": [[2321, 2330], [2845, 2854]], "confidence": 1.0, "name": "Australia", "admin1": "00", "type": "independent political entity"}, "id": 2077456, "geometry": {"type": "Point", "coordinates": [135.0, -25.0]}}, {"type": "Feature", "properties": {"country": "NP", "references": [[1742, 1748], [2308, 2314]], "confidence": 1.0, "name": "Batase", "admin1": "CR", "type": "fourth-order administrative division"}, "id": 7801991, "geometry": {"type": "Point", "coordinates": [85.74493, 27.81126]}}, {"type": "Feature", "properties": {"country": "AU", "references": [[3803, 3809]], "confidence": 1.0, "name": "Cairns", "admin1": "04", "type": "populated place"}, "id": 2172797, "geometry": {"type": "Point", "coordinates": [145.76625, -16.92304]}}, {"type": "Feature", "properties": {"country": "NP", "references": [[2513, 2520], [2974, 2981]], "confidence": 1.0, "name": "Dolakh\u0101", "admin1": "CR", "type": "third-order administrative division"}, "id": 1283431, "geometry": {"type": "Point", "coordinates": [86.25, 27.83333]}}, {"type": "Feature", "properties": {"country": "CN", "references": [[2120, 2125]], "confidence": 1.0, "name": "Tibet Autonomous Region", "admin1": "14", "type": "first-order administrative division"}, "id": 1279685, "geometry": {"type": "Point", "coordinates": [88.0, 31.66667]}}, {"type": "Feature", "properties": {"country": "US", "references": [[1887, 1889], [2593, 2595], [3093, 3095]], "confidence": 1.0, "name": "United States", "admin1": "0", "type": "independent political entity"}, "id": 6252001, "geometry": {"type": "Point", "coordinates": [-98.5, 39.76]}}, {"type": "Feature", "properties": {"country": "NP", "references": [[3608, 3614]], "confidence": 1.0, "name": "Rasuw\u0101", "admin1": "CR", "type": "third-order administrative division"}, "id": 1282859, "geometry": {"type": "Point", "coordinates": [85.33333, 28.16667]}}, {"type": "Feature", "properties": {"country": "PS", "references": [[512, 526]], "confidence": 1.0, "name": "Ash Shur\u0163ah as Siy\u0101\u1e29\u012byah", "admin1": "00", "type": "police post"}, "id": 8075346, "geometry": {"type": "Point", "coordinates": [35.20596, 31.70409]}}, {"type": "Feature", "properties": {"country": "NG", "references": [[3571, 3579], [3804, 3812]], "confidence": 1.0, "name": "Langtang", "admin1": "49", "type": "seat of a second-order administrative division"}, "id": 2332280, "geometry": {"type": "Point", "coordinates": [9.79101, 9.14164]}}, {"type": "Feature", "properties": {"country": "NP", "references": [[927, 958]], "confidence": 1.0, "name": "Tribhuwan International Airport", "admin1": "CR", "type": "populated locality"}, "id": 7962278, "geometry": {"type": "Point", "coordinates": [85.35909, 27.70225]}}, {"type": "Feature", "properties": {"country": "GB", "references": [[75, 81]], "confidence": 1.0, "name": "London", "admin1": "ENG", "type": "capital of a political entity"}, "id": 2643743, "geometry": {"type": "Point", "coordinates": [-0.12574, 51.50853]}}, {"type": "Feature", "properties": {"country": "GB", "references": [[4332, 4334]], "confidence": 1.0, "name": "United Kingdom", "admin1": "00", "type": "independent political entity"}, "id": 2635167, "geometry": {"type": "Point", "coordinates": [-2.69531, 54.75844]}}, {"type": "Feature", "properties": {"country": "IN", "references": [[244, 249], [664, 669], [693, 698]], "confidence": 1.0, "name": "India", "admin1": "00", "type": "independent political entity"}, "id": 1269750, "geometry": {"type": "Point", "coordinates": [79.0, 22.0]}}, {"type": "Feature", "properties": {"country": "US", "references": [[2927, 2934]], "confidence": 1.0, "name": "Reuters Cove", "admin1": "TX", "type": "bay"}, "id": 4722446, "geometry": {"type": "Point", "coordinates": [-98.9117, 29.56412]}}, {"type": "Feature", "properties": {"country": "US", "references": [[3136, 3156], [5057, 5077]], "confidence": 1.0, "name": "US Geological Survey Marrowstone Marine Field Station", "admin1": "WA", "type": "building(s)"}, "id": 7717139, "geometry": {"type": "Point", "coordinates": [-122.69035, 48.10157]}}, {"type": "Feature", "properties": {"country": "BD", "references": [[681, 691]], "confidence": 1.0, "name": "Bangladesh", "admin1": "00", "type": "independent political entity"}, "id": 1210997, "geometry": {"type": "Point", "coordinates": [90.0, 24.0]}}, {"type": "Feature", "properties": {"country": "NP", "references": [[1049, 1057], [1274, 1282]], "confidence": 1.0, "name": "Chari\u0307\u0304ko\u1e6d", "admin1": "00", "type": "administrative division"}, "id": 10322234, "geometry": {"type": "Point", "coordinates": [86.0584, 27.66298]}}, {"type": "Feature", "properties": {"country": "US", "references": [[1164, 1176]], "confidence": 1.0, "name": "Marine Corps Commandants House", "admin1": "DC", "type": "building(s)"}, "id": 4139510, "geometry": {"type": "Point", "coordinates": [-76.9947, 38.87983]}}, {"type": "Feature", "properties": {"country": "NP", "references": [[2382, 2395]], "confidence": 1.0, "name": "Sindhupalchok", "admin1": "CR", "type": "third-order administrative division"}, "id": 7647006, "geometry": {"type": "Point", "coordinates": [85.54504, 27.82936]}}, {"type": "Feature", "properties": {"country": "NP", "references": [[50, 63]], "confidence": 1.0, "name": "Mount Everest", "admin1": "00", "type": "mountain"}, "id": 1283416, "geometry": {"type": "Point", "coordinates": [86.92529, 27.98791]}}, {"type": "Feature", "properties": {"country": "NP", "references": [[4374, 4383]], "confidence": 1.0, "name": "R\u0101mechh\u0101p", "admin1": "CR", "type": "third-order administrative division"}, "id": 1282879, "geometry": {"type": "Point", "coordinates": [86.08333, 27.41667]}}, {"type": "Feature", "properties": {"country": "IN", "references": [[762, 767]], "confidence": 1.0, "name": "State of Bih\u0101r", "admin1": "34", "type": "first-order administrative division"}, "id": 1275715, "geometry": {"type": "Point", "coordinates": [85.75, 25.75]}}, {"type": "Feature", "properties": {"country": "CN", "references": [[813, 818]], "confidence": 1.0, "name": "China", "admin1": "00", "type": "independent political entity"}, "id": 1814991, "geometry": {"type": "Point", "coordinates": [105.0, 35.0]}}, {"type": "Feature", "properties": {"country": "AF", "references": [[2040, 2048], [2273, 2281]], "confidence": 1.0, "name": "Sh\u0113lah-ye Chowtarah", "admin1": "41", "type": "intermittent stream"}, "id": 1455214, "geometry": {"type": "Point", "coordinates": [65.59985, 34.10568]}}, {"type": "Feature", "properties": {"country": "NP", "references": [[3936, 3942], [4034, 4040]], "confidence": 1.0, "name": "Sankhu", "admin1": "CR", "type": "fourth-order administrative division"}, "id": 7799982, "geometry": {"type": "Point", "coordinates": [85.3367, 27.5084]}}, {"type": "Feature", "properties": {"country": "NP", "references": [[945, 957]], "confidence": 1.0, "name": "Ganesh Himal", "admin1": "00", "type": "mountains"}, "id": 1283409, "geometry": {"type": "Point", "coordinates": [85.08333, 28.33333]}}, {"type": "Feature", "properties": {"country": "US", "references": [[2072, 2077]], "confidence": 1.0, "name": "Bay Minette", "admin1": "AL", "type": "seat of a second-order administrative division"}, "id": 4046255, "geometry": {"type": "Point", "coordinates": [-87.77305, 30.88296]}}, {"type": "Feature", "properties": {"country": "HT", "references": [[2811, 2816]], "confidence": 1.0, "name": "Minet", "admin1": "12", "type": "populated place"}, "id": 3720847, "geometry": {"type": "Point", "coordinates": [-73.71667, 18.4]}}, {"type": "Feature", "properties": {"country": "US", "references": [[621, 652]], "confidence": 1.0, "name": "United States Geological Survey Observatory", "admin1": "AZ", "type": "not available"}, "id": 5318954, "geometry": {"type": "Point", "coordinates": [-111.53682, 35.09946]}}, {"type": "Feature", "properties": {"country": "NP", "references": [[4399, 4408]], "confidence": 1.0, "name": "Himalayas", "admin1": "00", "type": "mountains"}, "id": 1252558, "geometry": {"type": "Point", "coordinates": [84.0, 28.0]}}, {"type": "Feature", "properties": {"country": "US", "references": [[334, 341], [1135, 1142], [2409, 2416]], "confidence": 1.0, "name": "Everest", "admin1": "KS", "type": "populated place"}, "id": 4271199, "geometry": {"type": "Point", "coordinates": [-95.4247, 39.67722]}}, {"type": "Feature", "properties": {"country": "NP", "references": [[2235, 2257]], "confidence": 1.0, "name": "L\u0101\u1e45\u1e6d\u0101\u1e47 National Park", "admin1": "00", "type": "park"}, "id": 1283139, "geometry": {"type": "Point", "coordinates": [85.5, 28.25]}}, {"type": "Feature", "properties": {"country": "NP", "references": [[2578, 2584]], "confidence": 1.0, "name": "Gorkh\u0101", "admin1": "WR", "type": "third-order administrative division"}, "id": 1283379, "geometry": {"type": "Point", "coordinates": [84.83333, 28.33333]}}, {"type": "Feature", "properties": {"country": "US", "references": [[4387, 4408]], "confidence": 1.0, "name": "University of Arizona South", "admin1": "AZ", "type": "school"}, "id": 5318985, "geometry": {"type": "Point", "coordinates": [-110.24564, 31.56704]}}, {"type": "Feature", "properties": {"country": "US", "references": [[3938, 3955]], "confidence": 1.0, "name": "Hilton Garden Inn Durham University Medical Center", "admin1": "NC", "type": "hotel"}, "id": 9850203, "geometry": {"type": "Point", "coordinates": [-78.93204, 36.01054]}}, {"type": "Feature", "properties": {"country": "CN", "references": [[3259, 3266]], "confidence": 1.0, "name": "Sichuan Sheng", "admin1": "32", "type": "first-order administrative division"}, "id": 1794299, "geometry": {"type": "Point", "coordinates": [102.66667, 30.5]}}, {"type": "Feature", "properties": {"country": "NP", "references": [[243, 250]], "confidence": 1.0, "name": "Pokhara", "admin1": "WR", "type": "seat of a first-order administrative division"}, "id": 1282898, "geometry": {"type": "Point", "coordinates": [83.96851, 28.26689]}}, {"type": "Feature", "properties": {"country": "ID", "references": [[3041, 3045]], "confidence": 1.0, "name": "Nanggroe Aceh Darussalam Province", "admin1": "01", "type": "first-order administrative division"}, "id": 1215638, "geometry": {"type": "Point", "coordinates": [97.0, 4.0]}}, {"type": "Feature", "properties": {"country": "IR", "references": [[2866, 2870]], "confidence": 1.0, "name": "Iran", "admin1": "00", "type": "independent political entity"}, "id": 130758, "geometry": {"type": "Point", "coordinates": [53.0, 32.0]}}, {"type": "Feature", "properties": {"country": "HT", "references": [[3276, 3281]], "confidence": 1.0, "name": "Haiti", "admin1": "00", "type": "independent political entity"}, "id": 3723988, "geometry": {"type": "Point", "coordinates": [-72.41667, 19.0]}}, {"type": "Feature", "properties": {"country": "PK", "references": [[3545, 3553]], "confidence": 1.0, "name": "Pakistan", "admin1": "0", "type": "independent political entity"}, "id": 1168579, "geometry": {"type": "Point", "coordinates": [70.0, 30.0]}}, {"type": "Feature", "properties": {"country": "IN", "references": [[3121, 3128]], "confidence": 1.0, "name": "State of Jammu and Kashm\u012br", "admin1": "12", "type": "first-order administrative division"}, "id": 1269320, "geometry": {"type": "Point", "coordinates": [76.66667, 33.91667]}}, {"type": "Feature", "properties": {"country": "CA", "references": [[2911, 2926]], "confidence": 1.0, "name": "Prince of Wales Island", "admin1": "08", "type": "island"}, "id": 6113389, "geometry": {"type": "Point", "coordinates": [-88.41673, 49.45011]}}, {"type": "Feature", "properties": {"country": "NULL", "references": [[1521, 1532]], "confidence": 1.0, "name": "Middle East", "admin1": "", "type": "region"}, "id": 6269133, "geometry": {"type": "Point", "coordinates": [35.85869, 33.13906]}}, {"type": "Feature", "properties": {"country": "GB", "references": [[1123, 1139]], "confidence": 1.0, "name": "London Stansted Airport", "admin1": "ENG", "type": "airport"}, "id": 6296645, "geometry": {"type": "Point", "coordinates": [0.235, 51.885]}}, {"type": "Feature", "properties": {"country": "GB", "references": [[2487, 2510]], "confidence": 1.0, "name": "University of Leicester", "admin1": "ENG", "type": "university"}, "id": 6640320, "geometry": {"type": "Point", "coordinates": [-1.12444, 52.62139]}}, {"type": "Feature", "properties": {"country": "HK", "references": [[118, 127]], "confidence": 1.0, "name": "Hong Kong", "admin1": "00", "type": "capital of a political entity"}, "id": 1819729, "geometry": {"type": "Point", "coordinates": [114.15769, 22.28552]}}, {"type": "Feature", "properties": {"country": "CA", "references": [[1886, 1892]], "confidence": 1.0, "name": "Lac Boeing", "admin1": "10", "type": "lake"}, "id": 6001081, "geometry": {"type": "Point", "coordinates": [-70.40889, 49.43972]}}, {"type": "Feature", "properties": {"country": "GB", "references": [[505, 520]], "confidence": 1.0, "name": "RAF Lyneham", "admin1": "ENG", "type": "airport"}, "id": 6296580, "geometry": {"type": "Point", "coordinates": [-1.99343, 51.50514]}}, {"type": "Feature", "properties": {"country": "GB", "references": [[2677, 2684]], "confidence": 1.0, "name": "Morpeth", "admin1": "ENG", "type": "seat of a third-order administrative division"}, "id": 2642182, "geometry": {"type": "Point", "coordinates": [-1.68893, 55.16882]}}, {"type": "Feature", "properties": {"country": "GB", "references": [[879, 895]], "confidence": 1.0, "name": "RAF Brize Norton", "admin1": "ENG", "type": "airbase"}, "id": 6296660, "geometry": {"type": "Point", "coordinates": [-1.58333, 51.75]}}, {"type": "Feature", "properties": {"country": "GB", "references": [[1849, 1857]], "confidence": 1.0, "name": "Stansted", "admin1": "ENG", "type": "populated place"}, "id": 2637052, "geometry": {"type": "Point", "coordinates": [0.2, 51.9]}}, {"type": "Feature", "properties": {"country": "NP", "references": [[1301, 1308]], "confidence": 1.0, "name": "Dhunche", "admin1": "00", "type": "administrative division"}, "id": 10317991, "geometry": {"type": "Point", "coordinates": [85.30541, 28.08961]}}, {"type": "Feature", "properties": {"country": "GB", "references": [[2113, 2123]], "confidence": 1.0, "name": "Sunderland", "admin1": "ENG", "type": "seat of a second-order administrative division"}, "id": 2636531, "geometry": {"type": "Point", "coordinates": [-1.38222, 54.90465]}}, {"type": "Feature", "properties": {"country": "GB", "references": [[2686, 2700]], "confidence": 1.0, "name": "Northumberland", "admin1": "ENG", "type": "second-order administrative division"}, "id": 2641235, "geometry": {"type": "Point", "coordinates": [-2.0, 55.25]}}, {"type": "Feature", "properties": {"country": "GB", "references": [[2458, 2466]], "confidence": 1.0, "name": "Brighton", "admin1": "ENG", "type": "populated place"}, "id": 2654710, "geometry": {"type": "Point", "coordinates": [-0.13947, 50.82838]}}, {"type": "Feature", "properties": {"country": "NP", "references": [[2643, 2652]], "confidence": 1.0, "name": "Bhaktapur", "admin1": "CR", "type": "third-order administrative division"}, "id": 1283618, "geometry": {"type": "Point", "coordinates": [85.41673, 27.66734]}}, {"type": "Feature", "properties": {"country": "NP", "references": [[581, 588]], "confidence": 1.0, "name": "Chhampi", "admin1": "CR", "type": "fourth-order administrative division"}, "id": 7799950, "geometry": {"type": "Point", "coordinates": [85.31, 27.5958]}}, {"type": "Feature", "properties": {"country": "IN", "references": [[4355, 4365]], "confidence": 1.0, "name": "Kosi River", "admin1": "36", "type": "stream"}, "id": 1266066, "geometry": {"type": "Point", "coordinates": [78.94649, 28.68038]}}, {"type": "Feature", "properties": {"country": "CH", "references": [[584, 590]], "confidence": 1.0, "name": "Alpin Sherpa", "admin1": "BE", "type": "hotel"}, "id": 9256671, "geometry": {"type": "Point", "coordinates": [8.18586, 46.72809]}}, {"type": "Feature", "properties": {"country": "FR", "references": [[4381, 4387]], "confidence": 1.0, "name": "Ganges", "admin1": "A9", "type": "populated place"}, "id": 3016714, "geometry": {"type": "Point", "coordinates": [3.70784, 43.9338]}}, {"type": "Feature", "properties": {"country": "NP", "references": [[1740, 1750]], "confidence": 1.0, "name": "Sagarm\u0101th\u0101 Zone", "admin1": "ER", "type": "second-order administrative division"}, "id": 1282836, "geometry": {"type": "Point", "coordinates": [86.66667, 27.23333]}}, {"type": "Feature", "properties": {"country": "US", "references": [[1562, 1568]], "confidence": 1.0, "name": "Sherpa Glacier", "admin1": "WA", "type": "glacier(s)"}, "id": 5810228, "geometry": {"type": "Point", "coordinates": [-120.89009, 47.4754]}}, {"type": "Feature", "properties": {"country": "NL", "references": [[3763, 3774]], "confidence": 1.0, "name": "Netherlands", "admin1": "00", "type": "independent political entity"}, "id": 2750405, "geometry": {"type": "Point", "coordinates": [5.75, 52.25]}}, {"type": "Feature", "properties": {"country": "NL", "references": [[3737, 3755]], "confidence": 1.0, "name": "Utrecht University", "admin1": "09", "type": "scientific research base"}, "id": 10291123, "geometry": {"type": "Point", "coordinates": [5.12233, 52.09021]}}, {"type": "Feature", "properties": {"country": "US", "references": [[1351, 1365]], "confidence": 1.0, "name": "Citizenm New York Times Square", "admin1": "NY", "type": "hotel"}, "id": 10285268, "geometry": {"type": "Point", "coordinates": [-73.98481, 40.76172]}}, {"type": "Feature", "properties": {"country": "NP", "references": [[3819, 3826]], "confidence": 1.0, "name": "Khokana", "admin1": "CR", "type": "fourth-order administrative division"}, "id": 7799972, "geometry": {"type": "Point", "coordinates": [85.2962, 27.6416]}}, {"type": "Feature", "properties": {"country": "NP", "references": [[3721, 3737]], "confidence": 1.0, "name": "Kathmandu Valley", "admin1": "00", "type": "valley"}, "id": 1283239, "geometry": {"type": "Point", "coordinates": [85.35, 27.66667]}}, {"type": "Feature", "properties": {"country": "NULL", "references": [[784, 798]], "confidence": 1.0, "name": "European Union", "admin1": "", "type": "zone"}, "id": 6695072, "geometry": {"type": "Point", "coordinates": [4.37599, 50.83857]}}, {"type": "Feature", "properties": {"country": "US", "references": [[762, 772]], "confidence": 1.0, "name": "World Bank", "admin1": "DC", "type": "building(s)"}, "id": 4141143, "geometry": {"type": "Point", "coordinates": [-77.0422, 38.899]}}, {"type": "Feature", "properties": {"country": "QA", "references": [[2683, 2688]], "confidence": 1.0, "name": "Qatar", "admin1": "0", "type": "independent political entity"}, "id": 289688, "geometry": {"type": "Point", "coordinates": [51.25, 25.5]}}, {"type": "Feature", "properties": {"country": "MH", "references": [[366, 369]], "confidence": 1.0, "name": "Aon", "admin1": "410", "type": "island"}, "id": 2080942, "geometry": {"type": "Point", "coordinates": [169.7598, 11.20998]}}, {"type": "Feature", "properties": {"country": "US", "references": [[2837, 2859]], "confidence": 1.0, "name": "U.S. Geological Survey Water Science Center", "admin1": "MD", "type": "college"}, "id": 6691541, "geometry": {"type": "Point", "coordinates": [-76.71403, 39.24826]}}, {"type": "Feature", "properties": {"country": "US", "references": [[2928, 2938], [3148, 3158]], "confidence": 1.0, "name": "California", "admin1": "MD", "type": "populated place"}, "id": 4350049, "geometry": {"type": "Point", "coordinates": [-76.50745, 38.3004]}}, {"type": "Feature", "properties": {"country": "US", "references": [[603, 630]], "confidence": 1.0, "name": "International Monetary Fund Building", "admin1": "DC", "type": "building(s)"}, "id": 4139179, "geometry": {"type": "Point", "coordinates": [-77.04637, 38.90067]}}, {"type": "Feature", "properties": {"country": "JP", "references": [[1317, 1322]], "confidence": 1.0, "name": "Japan", "admin1": "00", "type": "independent political entity"}, "id": 1861060, "geometry": {"type": "Point", "coordinates": [139.75309, 35.68536]}}, {"type": "Feature", "properties": {"country": "CU", "references": [[2094, 2103]], "confidence": 1.0, "name": "Caribbean", "admin1": "02", "type": "hotel"}, "id": 7281237, "geometry": {"type": "Point", "coordinates": [-82.38859, 23.1168]}}, {"type": "Feature", "properties": {"country": "NULL", "references": [[908, 920]], "confidence": 1.0, "name": "Asia-Pacific Region", "admin1": "", "type": "region"}, "id": 99999998, "geometry": {"type": "Point", "coordinates": [114.15769, 22.28552]}}, {"type": "Feature", "properties": {"country": "NP", "references": [[3615, 3622], [4020, 4027]], "confidence": 1.0, "name": "Rummin-dei", "admin1": "WR", "type": "populated place"}, "id": 1282839, "geometry": {"type": "Point", "coordinates": [83.27714, 27.48619]}}, {"type": "Feature", "properties": {"country": "US", "references": [[4662, 4670]], "confidence": 1.0, "name": "Buddhist Shrine", "admin1": "AR", "type": "not available"}, "id": 4103607, "geometry": {"type": "Point", "coordinates": [-93.65519, 35.53508]}}, {"type": "Feature", "properties": {"country": "MM", "references": [[473, 480]], "confidence": 1.0, "name": "Myanmar", "admin1": "00", "type": "independent political entity"}, "id": 1327865, "geometry": {"type": "Point", "coordinates": [96.0, 21.0]}}, {"type": "Feature", "properties": {"country": "TR", "references": [[6213, 6220]], "confidence": 1.0, "name": "Alibaba", "admin1": "83", "type": "section of populated place"}, "id": 10839019, "geometry": {"type": "Point", "coordinates": [37.39263, 37.05255]}}, {"type": "Feature", "properties": {"country": "CL", "references": [[444, 449]], "confidence": 1.0, "name": "Chile", "admin1": "00", "type": "independent political entity"}, "id": 3895114, "geometry": {"type": "Point", "coordinates": [-71.0, -30.0]}}, {"type": "Feature", "properties": {"country": "ID", "references": [[451, 460]], "confidence": 1.0, "name": "Indonesia", "admin1": "00", "type": "independent political entity"}, "id": 1643084, "geometry": {"type": "Point", "coordinates": [120.0, -5.0]}}, {"type": "Feature", "properties": {"country": "NULL", "references": [[462, 468]], "confidence": 1.0, "name": "Africa", "admin1": "", "type": "continent"}, "id": 6255146, "geometry": {"type": "Point", "coordinates": [21.09375, 7.1881]}}, {"type": "Feature", "properties": {"country": "YE", "references": [[4280, 4305]], "confidence": 1.0, "name": "Al Wik\u0101lah al Amr\u012bk\u012byah lit Tanmiyah ad Dawl\u012byah", "admin1": "26", "type": "building(s)"}, "id": 7342281, "geometry": {"type": "Point", "coordinates": [44.20514, 15.39361]}}, {"type": "Feature", "properties": {"country": "NULL", "references": [[5509, 5516], [5877, 5884]], "confidence": 1.0, "name": "Eurasia Basin", "admin1": "00", "type": "basin"}, "id": 1529682, "geometry": {"type": "Point", "coordinates": [80.0, 87.0]}}, {"type": "Feature", "properties": {"country": "NULL", "references": [[6519, 6530]], "confidence": 1.0, "name": "Caspian Sea", "admin1": "00", "type": "sea"}, "id": 630671, "geometry": {"type": "Point", "coordinates": [50.0, 42.0]}}, {"type": "Feature", "properties": {"country": "US", "references": [[5770, 5793]], "confidence": 1.0, "name": "Oregon State University", "admin1": "OR", "type": "school"}, "id": 5744318, "geometry": {"type": "Point", "coordinates": [-123.2748, 44.5643]}}, {"type": "Feature", "properties": {"country": "IN", "references": [[6341, 6346]], "confidence": 1.0, "name": "Assam", "admin1": "03", "type": "first-order administrative division"}, "id": 1278253, "geometry": {"type": "Point", "coordinates": [93.0, 26.0]}}, {"type": "Feature", "properties": {"country": "US", "references": [[3989, 3997]], "confidence": 1.0, "name": "Colorado", "admin1": "CO", "type": "first-order administrative division"}, "id": 5417618, "geometry": {"type": "Point", "coordinates": [-105.50083, 39.00027]}}, {"type": "Feature", "properties": {"country": "US", "references": [[4352, 4377]], "confidence": 1.0, "name": "Yellowstone National Park", "admin1": "WY", "type": "park"}, "id": 5843642, "geometry": {"type": "Point", "coordinates": [-110.5472, 44.59644]}}, {"type": "Feature", "properties": {"country": "US", "references": [[3782, 3791]], "confidence": 1.0, "name": "Red Cross", "admin1": "NC", "type": "populated place"}, "id": 4487360, "geometry": {"type": "Point", "coordinates": [-80.35562, 35.26737]}}, {"type": "Feature", "properties": {"country": "US", "references": [[2273, 2298]], "confidence": 1.0, "name": "First Presbyterian Church (historical)", "admin1": "DC", "type": "church"}, "id": 4138646, "geometry": {"type": "Point", "coordinates": [-77.04692, 38.90233]}}, {"type": "Feature", "properties": {"country": "US", "references": [[3417, 3422]], "confidence": 1.0, "name": "Earth", "admin1": "TX", "type": "populated place"}, "id": 5520687, "geometry": {"type": "Point", "coordinates": [-102.41075, 34.23314]}}, {"type": "Feature", "properties": {"country": "CA", "references": [[4265, 4280]], "confidence": 1.0, "name": "Rocky Mountains", "admin1": "01", "type": "mountains"}, "id": 6126752, "geometry": {"type": "Point", "coordinates": [-117.25229, 52.0]}}, {"type": "Feature", "properties": {"country": "US", "references": [[0, 12]], "confidence": 1.0, "name": "Fort Collins", "admin1": "CO", "type": "seat of a second-order administrative division"}, "id": 5577147, "geometry": {"type": "Point", "coordinates": [-105.08442, 40.58526]}}, {"type": "Feature", "properties": {"country": "GB", "references": [[1000, 1013]], "confidence": 1.0, "name": "Northallerton", "admin1": "ENG", "type": "seat of a second-order administrative division"}, "id": 2641435, "geometry": {"type": "Point", "coordinates": [-1.43243, 54.33901]}}, {"type": "Feature", "properties": {"country": "GB", "references": [[1993, 2011]], "confidence": 1.0, "name": "Catterick Garrison", "admin1": "ENG", "type": "section of populated place"}, "id": 8260059, "geometry": {"type": "Point", "coordinates": [-1.72232, 54.37748]}}, {"type": "Feature", "properties": {"country": "US", "references": [[3060, 3076]], "confidence": 1.0, "name": "Royal Nepalese Embassy", "admin1": "DC", "type": "building(s)"}, "id": 4140259, "geometry": {"type": "Point", "coordinates": [-77.04831, 38.91594]}}, {"type": "Feature", "properties": {"country": "NP", "references": [[2065, 2079]], "confidence": 1.0, "name": "K\u0101bhre Pal\u0101nchok", "admin1": "CR", "type": "third-order administrative division"}, "id": 1283282, "geometry": {"type": "Point", "coordinates": [85.66667, 27.58333]}}, {"type": "Feature", "properties": {"country": "NULL", "references": [[1914, 1918]], "confidence": 1.0, "name": "Asia", "admin1": "", "type": "continent"}, "id": 6255147, "geometry": {"type": "Point", "coordinates": [89.29688, 29.84064]}}, {"type": "Feature", "properties": {"country": "IN", "references": [[295, 300]], "confidence": 1.0, "name": "Delhi", "admin1": "07", "type": "seat of a first-order administrative division"}, "id": 1273294, "geometry": {"type": "Point", "coordinates": [77.23149, 28.65195]}}, {"type": "Feature", "properties": {"country": "GB", "references": [[556, 563]], "confidence": 1.0, "name": "Great Britain", "admin1": "ENG", "type": "island"}, "id": 2648147, "geometry": {"type": "Point", "coordinates": [-2.0, 54.0]}}, {"type": "Feature", "properties": {"country": "SL", "references": [[2117, 2136]], "confidence": 1.0, "name": "Ministry of Defence and National Security", "admin1": "04", "type": "building(s)"}, "id": 9204304, "geometry": {"type": "Point", "coordinates": [-13.23505, 8.48562]}}, {"type": "Feature", "properties": {"country": "AU", "references": [[3790, 3820]], "confidence": 1.0, "name": "The Australian National University", "admin1": "01", "type": "college"}, "id": 9881604, "geometry": {"type": "Point", "coordinates": [149.11891, -35.27772]}}, {"type": "Feature", "properties": {"country": "US", "references": [[1398, 1417]], "confidence": 1.0, "name": "National University", "admin1": "CA", "type": "school"}, "id": 5376214, "geometry": {"type": "Point", "coordinates": [-117.10586, 32.77755]}}, {"type": "Feature", "properties": {"country": "US", "references": [[2113, 2124]], "confidence": 1.0, "name": "New Orleans", "admin1": "LA", "type": "seat of a second-order administrative division"}, "id": 4335045, "geometry": {"type": "Point", "coordinates": [-90.07507, 29.95465]}}, {"type": "Feature", "properties": {"country": "US", "references": [[591, 600]], "confidence": 1.0, "name": "St Louis", "admin1": "MO", "type": "seat of a second-order administrative division"}, "id": 4407066, "geometry": {"type": "Point", "coordinates": [-90.19789, 38.62727]}}, {"type": "Feature", "properties": {"country": "US", "references": [[1247, 1264], [3724, 3741]], "confidence": 1.0, "name": "Dartmouth College", "admin1": "NH", "type": "school"}, "id": 5085271, "geometry": {"type": "Point", "coordinates": [-72.28641, 43.70035]}}, {"type": "Feature", "properties": {"country": "US", "references": [[3881, 3908]], "confidence": 1.0, "name": "National Science Foundation Building", "admin1": "DC", "type": "building(s)"}, "id": 4139764, "geometry": {"type": "Point", "coordinates": [-77.0422, 38.89789]}}, {"type": "Feature", "properties": {"country": "EC", "references": [[3697, 3704]], "confidence": 1.0, "name": "Ecuador", "admin1": "00", "type": "independent political entity"}, "id": 3658394, "geometry": {"type": "Point", "coordinates": [-78.25, -1.25]}}, {"type": "Feature", "properties": {"country": "US", "references": [[566, 587]], "confidence": 1.0, "name": "Washington University", "admin1": "MO", "type": "school"}, "id": 4413676, "geometry": {"type": "Point", "coordinates": [-90.30706, 38.64811]}}, {"type": "Feature", "properties": {"country": "CM", "references": [[3650, 3654]], "confidence": 1.0, "name": "Song Ngos", "admin1": "11", "type": "populated place"}, "id": 2221914, "geometry": {"type": "Point", "coordinates": [10.85, 3.98333]}}, {"type": "Feature", "properties": {"country": "NP", "references": [[183, 190], [926, 933], [1628, 1635]], "confidence": 1.0, "name": "Suntali", "admin1": "MR", "type": "populated locality"}, "id": 7957980, "geometry": {"type": "Point", "coordinates": [81.84231, 29.10697]}}, {"type": "Feature", "properties": {"country": "NP", "references": [[320, 329], [558, 567], [1483, 1492], [1720, 1729]], "confidence": 1.0, "name": "Mahottar\u012b", "admin1": "CR", "type": "third-order administrative division"}, "id": 1283094, "geometry": {"type": "Point", "coordinates": [85.83333, 26.91667]}}, {"type": "Feature", "properties": {"country": "IN", "references": [[1096, 1102]], "confidence": 1.0, "name": "Pah\u0101ri", "admin1": "35", "type": "populated place"}, "id": 1260875, "geometry": {"type": "Point", "coordinates": [81.88148, 24.74778]}}, {"type": "Feature", "properties": {"country": "IN", "references": [[299, 306], [537, 544], [1160, 1167], [1462, 1469], [1699, 1706], [2287, 2294]], "confidence": 1.0, "name": "Musahar", "admin1": "36", "type": "populated place"}, "id": 10609916, "geometry": {"type": "Point", "coordinates": [82.16545, 26.42584]}}, {"type": "Feature", "properties": {"country": "US", "references": [[587, 601]], "confidence": 1.0, "name": "United Nations Headquarters", "admin1": "NY", "type": "building(s)"}, "id": 5141947, "geometry": {"type": "Point", "coordinates": [-73.96792, 40.74955]}}, {"type": "Feature", "properties": {"country": "IN", "references": [[1664, 1669]], "confidence": 1.0, "name": "T\u0101rai", "admin1": "35", "type": "populated place"}, "id": 1254915, "geometry": {"type": "Point", "coordinates": [77.93534, 24.63904]}}, {"type": "Feature", "properties": {"country": "IN", "references": [[2289, 2303]], "confidence": 1.0, "name": "Vizag", "admin1": "02", "type": "seat of a second-order administrative division"}, "id": 1253102, "geometry": {"type": "Point", "coordinates": [83.20161, 17.68009]}}, {"type": "Feature", "properties": {"country": "BD", "references": [[2357, 2367], [2693, 2703]], "confidence": 1.0, "name": "Basantapur", "admin1": "83", "type": "populated place"}, "id": 1209956, "geometry": {"type": "Point", "coordinates": [88.33565, 24.488]}}, {"type": "Feature", "properties": {"country": "NP", "references": [[365, 371]], "confidence": 1.0, "name": "Khalte", "admin1": "CR", "type": "fourth-order administrative division"}, "id": 7799462, "geometry": {"type": "Point", "coordinates": [84.9728, 27.8754]}}, {"type": "Feature", "properties": {"country": "NP", "references": [[181, 188], [3317, 3324]], "confidence": 1.0, "name": "Mailung Dobhan", "admin1": "CR", "type": "populated locality"}, "id": 7982171, "geometry": {"type": "Point", "coordinates": [85.20835, 28.07625]}}, {"type": "Feature", "properties": {"country": "NP", "references": [[201, 210]], "confidence": 1.0, "name": "Thulagaun", "admin1": "CR", "type": "populated locality"}, "id": 7942171, "geometry": {"type": "Point", "coordinates": [85.15389, 27.71169]}}, {"type": "Feature", "properties": {"country": "NP", "references": [[212, 223]], "confidence": 1.0, "name": "Laharepauwa", "admin1": "CR", "type": "populated locality"}, "id": 7982195, "geometry": {"type": "Point", "coordinates": [85.19589, 27.98246]}}, {"type": "Feature", "properties": {"country": "NP", "references": [[1150, 1156]], "confidence": 1.0, "name": "Lamsal Dihi", "admin1": "WR", "type": "populated locality"}, "id": 8004054, "geometry": {"type": "Point", "coordinates": [84.24603, 28.0674]}}, {"type": "Feature", "properties": {"country": "NP", "references": [[3872, 3881]], "confidence": 1.0, "name": "Betr\u0101wati", "admin1": "00", "type": "populated place"}, "id": 1283631, "geometry": {"type": "Point", "coordinates": [85.17073, 27.9726]}}, {"type": "Feature", "properties": {"country": "NP", "references": [[299, 306]], "confidence": 1.0, "name": "Nuw\u0101kot", "admin1": "CR", "type": "third-order administrative division"}, "id": 1282973, "geometry": {"type": "Point", "coordinates": [85.25, 27.91667]}}, {"type": "Feature", "properties": {"country": "CA", "references": [[1691, 1701]], "confidence": 1.0, "name": "Parliament", "admin1": "08", "type": "area"}, "id": 6098672, "geometry": {"type": "Point", "coordinates": [-81.56641, 50.03352]}}, {"type": "Feature", "properties": {"country": "JP", "references": [[2958, 2964]], "confidence": 1.0, "name": "Sendai", "admin1": "24", "type": "seat of a first-order administrative division"}, "id": 2111149, "geometry": {"type": "Point", "coordinates": [140.86667, 38.26667]}}, {"type": "Feature", "properties": {"country": "US", "references": [[1194, 1204]], "confidence": 1.0, "name": "Washington", "admin1": "WA", "type": "first-order administrative division"}, "id": 5815135, "geometry": {"type": "Point", "coordinates": [-120.50147, 47.50012]}}, {"type": "Feature", "properties": {"country": "US", "references": [[1171, 1178]], "confidence": 1.0, "name": "Seattle", "admin1": "WA", "type": "seat of a second-order administrative division"}, "id": 5809844, "geometry": {"type": "Point", "coordinates": [-122.33207, 47.60621]}}, {"type": "Feature", "properties": {"country": "FR", "references": [[3592, 3602]], "confidence": 1.0, "name": "Sasseville", "admin1": "A7", "type": "populated place"}, "id": 2975904, "geometry": {"type": "Point", "coordinates": [0.68009, 49.78885]}}, {"type": "Feature", "properties": {"country": "CN", "references": [[2772, 2783]], "confidence": 1.0, "name": "South China Hotel Fuyang", "admin1": "01", "type": "hotel"}, "id": 6522724, "geometry": {"type": "Point", "coordinates": [115.8166, 32.8999]}}, {"type": "Feature", "properties": {"country": "NP", "references": [[2066, 2074], [2583, 2591]], "confidence": 1.0, "name": "Chabahil", "admin1": "CR", "type": "populated locality"}, "id": 7962265, "geometry": {"type": "Point", "coordinates": [85.34937, 27.71795]}}, {"type": "Feature", "properties": {"country": "NP", "references": [[2875, 2880]], "confidence": 1.0, "name": "P\u0101tan", "admin1": "CR", "type": "populated place"}, "id": 1282931, "geometry": {"type": "Point", "coordinates": [85.31417, 27.67658]}}, {"type": "Feature", "properties": {"country": "NP", "references": [[2222, 2235]], "confidence": 1.0, "name": "Pashupati\u0307\u0304n\u0101th", "admin1": "00", "type": "populated place"}, "id": 1282933, "geometry": {"type": "Point", "coordinates": [85.34511, 27.71059]}}, {"type": "Feature", "properties": {"country": "AM", "references": [[2545, 2550]], "confidence": 1.0, "name": "Kapan", "admin1": "08", "type": "seat of a first-order administrative division"}, "id": 174875, "geometry": {"type": "Point", "coordinates": [46.40576, 39.20755]}}, {"type": "Feature", "properties": {"country": "NP", "references": [[619, 625]], "confidence": 1.0, "name": "Ramche", "admin1": "CR", "type": "fourth-order administrative division"}, "id": 7800305, "geometry": {"type": "Point", "coordinates": [85.22286, 28.04466]}}, {"type": "Feature", "properties": {"country": "IN", "references": [[2690, 2697]], "confidence": 1.0, "name": "Chhetri", "admin1": "36", "type": "populated place"}, "id": 10467377, "geometry": {"type": "Point", "coordinates": [79.16416, 27.72106]}}, {"type": "Feature", "properties": {"country": "NP", "references": [[6406, 6415]], "confidence": 1.0, "name": "Makaw\u0101npur Ga\u1e0dhi\u0307\u0304", "admin1": "00", "type": "populated place"}, "id": 1283084, "geometry": {"type": "Point", "coordinates": [85.14279, 27.41062]}}, {"type": "Feature", "properties": {"country": "PH", "references": [[1572, 1583]], "confidence": 1.0, "name": "Philippines", "admin1": "0", "type": "independent political entity"}, "id": 1694008, "geometry": {"type": "Point", "coordinates": [122.0, 13.0]}}, {"type": "Feature", "properties": {"country": "LK", "references": [[1219, 1240]], "confidence": 1.0, "name": "United Nations Office", "admin1": "36", "type": "diplomatic facility"}, "id": 7545428, "geometry": {"type": "Point", "coordinates": [79.8624, 6.8978]}}, {"type": "Feature", "properties": {"country": "NP", "references": [[242, 249]], "confidence": 1.0, "name": "Kerauja", "admin1": "WR", "type": "fourth-order administrative division"}, "id": 7799127, "geometry": {"type": "Point", "coordinates": [85.0067, 28.3423]}}, {"type": "Feature", "properties": {"country": "CO", "references": [[251, 256]], "confidence": 1.0, "name": "Salto Up\u00eda", "admin1": "00", "type": "waterfall(s)"}, "id": 3666455, "geometry": {"type": "Point", "coordinates": [-72.41667, -0.35]}}, {"type": "Feature", "properties": {"country": "NP", "references": [[235, 240]], "confidence": 1.0, "name": "Gumda", "admin1": "WR", "type": "fourth-order administrative division"}, "id": 7799094, "geometry": {"type": "Point", "coordinates": [84.82909, 28.22471]}}, {"type": "Feature", "properties": {"country": "NP", "references": [[3462, 3469]], "confidence": 1.0, "name": "Bakrang", "admin1": "WR", "type": "fourth-order administrative division"}, "id": 7798916, "geometry": {"type": "Point", "coordinates": [84.5946, 27.9345]}}, {"type": "Feature", "properties": {"country": "PS", "references": [[3844, 3861]], "confidence": 1.0, "name": "Markaz \u015ei\u1e29\u1e29at Qalq\u012blyah", "admin1": "00", "type": "clinic"}, "id": 8069864, "geometry": {"type": "Point", "coordinates": [34.96398, 32.18714]}}, {"type": "Feature", "properties": {"country": "NP", "references": [[258, 266]], "confidence": 1.0, "name": "Saurpani", "admin1": "WR", "type": "fourth-order administrative division"}, "id": 7799322, "geometry": {"type": "Point", "coordinates": [84.7188, 28.1388]}}, {"type": "Feature", "properties": {"country": "NP", "references": [[3445, 3451]], "confidence": 1.0, "name": "Barpak", "admin1": "WR", "type": "populated locality"}, "id": 7949687, "geometry": {"type": "Point", "coordinates": [84.74755, 28.20301]}}, {"type": "Feature", "properties": {"country": "US", "references": [[2674, 2693]], "confidence": 1.0, "name": "Arizona Department of Mines and Mineral Resources Museum", "admin1": "AZ", "type": "museum"}, "id": 8109051, "geometry": {"type": "Point", "coordinates": [-112.09192, 33.44852]}}, {"type": "Feature", "properties": {"country": "NP", "references": [[36, 45]], "confidence": 1.0, "name": "Dandagaun", "admin1": "MR", "type": "fourth-order administrative division"}, "id": 7801888, "geometry": {"type": "Point", "coordinates": [82.2511, 28.78883]}}, {"type": "Feature", "properties": {"country": "NP", "references": [[280, 288]], "confidence": 1.0, "name": "Trishuli", "admin1": "CR", "type": "populated locality"}, "id": 7968372, "geometry": {"type": "Point", "coordinates": [85.10417, 27.37864]}}, {"type": "Feature", "properties": {"country": "IN", "references": [[2241, 2247]], "confidence": 1.0, "name": "Sirsia", "admin1": "36", "type": "populated place"}, "id": 10593525, "geometry": {"type": "Point", "coordinates": [82.08662, 27.79468]}}, {"type": "Feature", "properties": {"country": "NP", "references": [[2070, 2076]], "confidence": 1.0, "name": "Dhar\u0101n B\u0101z\u0101r", "admin1": "ER", "type": "populated place"}, "id": 1283460, "geometry": {"type": "Point", "coordinates": [87.28355, 26.81248]}}, {"type": "Feature", "properties": {"country": "NP", "references": [[2437, 2447]], "confidence": 1.0, "name": "Bir\u0101tnagar", "admin1": "ER", "type": "populated place"}, "id": 1283582, "geometry": {"type": "Point", "coordinates": [87.28337, 26.4831]}}, {"type": "Feature", "properties": {"country": "NP", "references": [[2314, 2319]], "confidence": 1.0, "name": "Lubhu", "admin1": "CR", "type": "fourth-order administrative division"}, "id": 7799976, "geometry": {"type": "Point", "coordinates": [85.3754, 27.6359]}}, {"type": "Feature", "properties": {"country": "NZ", "references": [[5193, 5204]], "confidence": 1.0, "name": "New Zealand", "admin1": "00", "type": "independent political entity"}, "id": 2186224, "geometry": {"type": "Point", "coordinates": [174.0, -42.0]}}, {"type": "Feature", "properties": {"country": "TW", "references": [[5209, 5215]], "confidence": 1.0, "name": "Taiwan", "admin1": "0", "type": "independent political entity"}, "id": 1668284, "geometry": {"type": "Point", "coordinates": [121.0, 24.0]}}, {"type": "Feature", "properties": {"country": "US", "references": [[887, 893]], "confidence": 1.0, "name": "Google Lake", "admin1": "MN", "type": "lake"}, "id": 5028271, "geometry": {"type": "Point", "coordinates": [-94.01799, 46.61809]}}, {"type": "Feature", "properties": {"country": "US", "references": [[1478, 1491]], "confidence": 1.0, "name": "Beverly Hills", "admin1": "CA", "type": "populated place"}, "id": 5328041, "geometry": {"type": "Point", "coordinates": [-118.40036, 34.07362]}}, {"type": "Feature", "properties": {"country": "IN", "references": [[666, 677]], "confidence": 1.0, "name": "North Delhi", "admin1": "07", "type": "second-order administrative division"}, "id": 8335422, "geometry": {"type": "Point", "coordinates": [77.22273, 28.6692]}}, {"type": "Feature", "properties": {"country": "IN", "references": [[3239, 3250]], "confidence": 1.0, "name": "West Bengal", "admin1": "28", "type": "first-order administrative division"}, "id": 1252881, "geometry": {"type": "Point", "coordinates": [88.0, 24.0]}}, {"type": "Feature", "properties": {"country": "IN", "references": [[3231, 3237], [3281, 3287]], "confidence": 1.0, "name": "Sikkim", "admin1": "29", "type": "first-order administrative division"}, "id": 1256312, "geometry": {"type": "Point", "coordinates": [88.5, 27.75]}}, {"type": "Feature", "properties": {"country": "PK", "references": [[2434, 2445]], "confidence": 1.0, "name": "Lahori Gate", "admin1": "03", "type": "section of populated place"}, "id": 7041348, "geometry": {"type": "Point", "coordinates": [71.58698, 34.00995]}}, {"type": "Feature", "properties": {"country": "IN", "references": [[1170, 1180]], "confidence": 1.0, "name": "Thiruvananthapuram", "admin1": "13", "type": "seat of a first-order administrative division"}, "id": 1254163, "geometry": {"type": "Point", "coordinates": [76.94924, 8.4855]}}, {"type": "Feature", "properties": {"country": "IN", "references": [[882, 890]], "confidence": 1.0, "name": "Srinagar", "admin1": "12", "type": "seat of a first-order administrative division"}, "id": 1255634, "geometry": {"type": "Point", "coordinates": [74.80555, 34.08565]}}, {"type": "Feature", "properties": {"country": "IN", "references": [[1101, 1106]], "confidence": 1.0, "name": "Patna", "admin1": "34", "type": "seat of a first-order administrative division"}, "id": 1260086, "geometry": {"type": "Point", "coordinates": [85.10103, 25.61538]}}, {"type": "Feature", "properties": {"country": "IN", "references": [[895, 903]], "confidence": 1.0, "name": "Guwahati", "admin1": "03", "type": "populated place"}, "id": 1271476, "geometry": {"type": "Point", "coordinates": [91.7458, 26.1844]}}, {"type": "Feature", "properties": {"country": "IN", "references": [[1092, 1099]], "confidence": 1.0, "name": "Dh\u0101nb\u0101d", "admin1": "38", "type": "second-order administrative division"}, "id": 1272980, "geometry": {"type": "Point", "coordinates": [86.41667, 23.75]}}, {"type": "Feature", "properties": {"country": "IN", "references": [[1146, 1150]], "confidence": 1.0, "name": "Pune", "admin1": "16", "type": "populated place"}, "id": 1259229, "geometry": {"type": "Point", "coordinates": [73.85535, 18.51957]}}, {"type": "Feature", "properties": {"country": "IN", "references": [[1083, 1090]], "confidence": 1.0, "name": "Calcutta", "admin1": "28", "type": "seat of a first-order administrative division"}, "id": 1275004, "geometry": {"type": "Point", "coordinates": [88.36304, 22.56263]}}, {"type": "Feature", "properties": {"country": "IN", "references": [[1203, 1211]], "confidence": 1.0, "name": "Jabalpur", "admin1": "35", "type": "populated place"}, "id": 1269633, "geometry": {"type": "Point", "coordinates": [79.95006, 23.16697]}}, {"type": "Feature", "properties": {"country": "IN", "references": [[1129, 1137]], "confidence": 1.0, "name": "J\u0101mnagar", "admin1": "09", "type": "populated place"}, "id": 1269317, "geometry": {"type": "Point", "coordinates": [70.06673, 22.47292]}}, {"type": "Feature", "properties": {"country": "IN", "references": [[1139, 1144]], "confidence": 1.0, "name": "S\u016brat", "admin1": "09", "type": "populated place"}, "id": 1255364, "geometry": {"type": "Point", "coordinates": [72.83023, 21.19594]}}, {"type": "Feature", "properties": {"country": "IN", "references": [[1152, 1161]], "confidence": 1.0, "name": "Mangalore", "admin1": "19", "type": "populated place"}, "id": 1263780, "geometry": {"type": "Point", "coordinates": [74.85603, 12.91723]}}, {"type": "Feature", "properties": {"country": "IN", "references": [[1216, 1227]], "confidence": 1.0, "name": "Bhubaneshwar", "admin1": "21", "type": "seat of a first-order administrative division"}, "id": 1275817, "geometry": {"type": "Point", "coordinates": [85.83385, 20.27241]}}, {"type": "Feature", "properties": {"country": "IN", "references": [[1182, 1189]], "confidence": 1.0, "name": "Chennai", "admin1": "25", "type": "seat of a first-order administrative division"}, "id": 1264527, "geometry": {"type": "Point", "coordinates": [80.27847, 13.08784]}}, {"type": "Feature", "properties": {"country": "IN", "references": [[1118, 1127]], "confidence": 1.0, "name": "Jalandhar", "admin1": "23", "type": "populated place"}, "id": 1268782, "geometry": {"type": "Point", "coordinates": [75.57917, 31.32556]}}, {"type": "Feature", "properties": {"country": "NP", "references": [[2730, 2740]], "confidence": 1.0, "name": "Manakamana", "admin1": "WR", "type": "fourth-order administrative division"}, "id": 7799239, "geometry": {"type": "Point", "coordinates": [84.573, 27.8909]}}, {"type": "Feature", "properties": {"country": "FJ", "references": [[3292, 3296]], "confidence": 1.0, "name": "Fiji", "admin1": "00", "type": "independent political entity"}, "id": 2205218, "geometry": {"type": "Point", "coordinates": [178.0, -18.0]}}, {"type": "Feature", "properties": {"country": "NP", "references": [[1101, 1108]], "confidence": 1.0, "name": "T\u012bk\u0101pur", "admin1": "FR", "type": "populated place"}, "id": 1282666, "geometry": {"type": "Point", "coordinates": [81.13333, 28.5]}}, {"type": "Feature", "properties": {"country": "NP", "references": [[1110, 1117]], "confidence": 1.0, "name": "Bardiy\u0101", "admin1": "MR", "type": "third-order administrative division"}, "id": 1283663, "geometry": {"type": "Point", "coordinates": [81.41667, 28.33333]}}, {"type": "Feature", "properties": {"country": "AE", "references": [[5816, 5821]], "confidence": 1.0, "name": "K\u016briy\u0101", "admin1": "01", "type": "diplomatic facility"}, "id": 8054042, "geometry": {"type": "Point", "coordinates": [54.36885, 24.46787]}}, {"type": "Feature", "properties": {"country": "LK", "references": [[5780, 5789]], "confidence": 1.0, "name": "Sri Lanka", "admin1": "00", "type": "independent political entity"}, "id": 1227603, "geometry": {"type": "Point", "coordinates": [80.75, 7.75]}}, {"type": "Feature", "properties": {"country": "AT", "references": [[5800, 5807]], "confidence": 1.0, "name": "Austria", "admin1": "00", "type": "independent political entity"}, "id": 2782113, "geometry": {"type": "Point", "coordinates": [13.33333, 47.33333]}}, {"type": "Feature", "properties": {"country": "EG", "references": [[5352, 5371], [6212, 6231]], "confidence": 1.0, "name": "Wiz\u0101rat ath Thaq\u0101fah", "admin1": "08", "type": "administrative facility"}, "id": 7929133, "geometry": {"type": "Point", "coordinates": [31.21312, 30.06521]}}, {"type": "Feature", "properties": {"country": "AE", "references": [[5791, 5798]], "confidence": 1.0, "name": "Alm\u0101niy\u0101", "admin1": "01", "type": "diplomatic facility"}, "id": 8052719, "geometry": {"type": "Point", "coordinates": [54.36728, 24.45618]}}, {"type": "Feature", "properties": {"country": "NP", "references": [[273, 282], [2014, 2023], [2286, 2295]], "confidence": 1.0, "name": "Swayambhu", "admin1": "CR", "type": "populated locality"}, "id": 7962180, "geometry": {"type": "Point", "coordinates": [85.29553, 27.71983]}}, {"type": "Feature", "properties": {"country": "CA", "references": [[5219, 5225]], "confidence": 1.0, "name": "Canada", "admin1": "00", "type": "independent political entity"}, "id": 6251999, "geometry": {"type": "Point", "coordinates": [-113.64258, 60.10867]}}, {"type": "Feature", "properties": {"country": "GB", "references": [[1363, 1369]], "confidence": 1.0, "name": "Durham", "admin1": "ENG", "type": "seat of a second-order administrative division"}, "id": 2650628, "geometry": {"type": "Point", "coordinates": [-1.57566, 54.77676]}}, {"type": "Feature", "properties": {"country": "US", "references": [[4672, 4680]], "confidence": 1.0, "name": "Pasadena", "admin1": "TX", "type": "populated place"}, "id": 4717782, "geometry": {"type": "Point", "coordinates": [-95.2091, 29.69106]}}, {"type": "Feature", "properties": {"country": "FR", "references": [[4237, 4242]], "confidence": 1.0, "name": "Paris", "admin1": "A8", "type": "capital of a political entity"}, "id": 2988507, "geometry": {"type": "Point", "coordinates": [2.3488, 48.85341]}}, {"type": "Feature", "properties": {"country": "NL", "references": [[1465, 1474]], "confidence": 1.0, "name": "Groningen", "admin1": "04", "type": "seat of a first-order administrative division"}, "id": 2755251, "geometry": {"type": "Point", "coordinates": [6.56667, 53.21917]}}, {"type": "Feature", "properties": {"country": "NL", "references": [[1324, 1329]], "confidence": 1.0, "name": "Assen", "admin1": "01", "type": "seat of a first-order administrative division"}, "id": 2759633, "geometry": {"type": "Point", "coordinates": [6.5625, 52.99667]}}, {"type": "Feature", "properties": {"country": "US", "references": [[2779, 2787]], "confidence": 1.0, "name": "Oklahoma", "admin1": "OK", "type": "first-order administrative division"}, "id": 4544379, "geometry": {"type": "Point", "coordinates": [-97.50328, 35.49209]}}, {"type": "Feature", "properties": {"country": "GB", "references": [[1377, 1397]], "confidence": 1.0, "name": "Newcastle University", "admin1": "ENG", "type": "school"}, "id": 10858714, "geometry": {"type": "Point", "coordinates": [-1.61482, 54.97945]}}, {"type": "Feature", "properties": {"country": "NP", "references": [[3770, 3779]], "confidence": 1.0, "name": "Kuli\u0307\u0304kh\u0101ni Khola", "admin1": "00", "type": "stream"}, "id": 1283177, "geometry": {"type": "Point", "coordinates": [85.23333, 27.53333]}}, {"type": "Feature", "properties": {"country": "NP", "references": [[1961, 1968]], "confidence": 1.0, "name": "Karn\u0101l\u012b Zone", "admin1": "MR", "type": "second-order administrative division"}, "id": 1283245, "geometry": {"type": "Point", "coordinates": [82.41667, 29.5]}}, {"type": "Feature", "properties": {"country": "JP", "references": [[2920, 2927]], "confidence": 1.0, "name": "Okinawa", "admin1": "47", "type": "first-order administrative division"}, "id": 1854345, "geometry": {"type": "Point", "coordinates": [127.93333, 26.5]}}, {"type": "Feature", "properties": {"country": "DE", "references": [[5428, 5435]], "confidence": 1.0, "name": "Reuters", "admin1": "05", "type": "populated place"}, "id": 2847796, "geometry": {"type": "Point", "coordinates": [9.3515, 50.6745]}}, {"type": "Feature", "properties": {"country": "NP", "references": [[4620, 4632]], "confidence": 1.0, "name": "Kamalpokhari", "admin1": "CR", "type": "populated locality"}, "id": 7934824, "geometry": {"type": "Point", "coordinates": [84.36117, 27.64889]}}, {"type": "Feature", "properties": {"country": "NP", "references": [[4761, 4770]], "confidence": 1.0, "name": "Tundikhel", "admin1": "CR", "type": "populated locality"}, "id": 7934316, "geometry": {"type": "Point", "coordinates": [84.57096, 27.81351]}}, {"type": "Feature", "properties": {"country": "ZW", "references": [[1408, 1419], [2631, 2642]], "confidence": 1.0, "name": "Ruby Valley", "admin1": "00", "type": "mine(s)"}, "id": 882252, "geometry": {"type": "Point", "coordinates": [29.83333, -16.51667]}}, {"type": "Feature", "properties": {"country": "CN", "references": [[3728, 3734]], "confidence": 1.0, "name": "Borang", "admin1": "31", "type": "populated place"}, "id": 7642935, "geometry": {"type": "Point", "coordinates": [110.4101, 19.91009]}}, {"type": "Feature", "properties": {"country": "BR", "references": [[2775, 2779]], "confidence": 1.0, "name": "Bom Jesus da Lapa", "admin1": "05", "type": "populated place"}, "id": 3469437, "geometry": {"type": "Point", "coordinates": [-43.41806, -13.255]}}, {"type": "Feature", "properties": {"country": "NP", "references": [[19, 26], [2646, 2653]], "confidence": 1.0, "name": "Dh\u0101ding", "admin1": "00", "type": "populated place"}, "id": 1283471, "geometry": {"type": "Point", "coordinates": [84.9283, 27.86424]}}, {"type": "Feature", "properties": {"country": "IR", "references": [[536, 542], [2985, 2991]], "confidence": 1.0, "name": "K\u016bhh\u0101-ye Z\u0101gros", "admin1": "23", "type": "mountains"}, "id": 6727074, "geometry": {"type": "Point", "coordinates": [47.5717, 33.8049]}}, {"type": "Feature", "properties": {"country": "AU", "references": [[682, 688]], "confidence": 1.0, "name": "New Norcia", "admin1": "08", "type": "populated place"}, "id": 2064760, "geometry": {"type": "Point", "coordinates": [116.21247, -30.97061]}}, {"type": "Feature", "properties": {"country": "AU", "references": [[243, 254]], "confidence": 1.0, "name": "Switzerland", "admin1": "07", "type": "homestead"}, "id": 8817884, "geometry": {"type": "Point", "coordinates": [145.41962, -37.1525]}}, {"type": "Feature", "properties": {"country": "US", "references": [[2952, 2956]], "confidence": 1.0, "name": "Alps", "admin1": "GA", "type": "populated place"}, "id": 4179588, "geometry": {"type": "Point", "coordinates": [-84.60326, 33.14818]}}, {"type": "Feature", "properties": {"country": "US", "references": [[690, 695]], "confidence": 1.0, "name": "Italy", "admin1": "TX", "type": "populated place"}, "id": 4700234, "geometry": {"type": "Point", "coordinates": [-96.88472, 32.18404]}}, {"type": "Feature", "properties": {"country": "JM", "references": [[3046, 3050]], "confidence": 1.0, "name": "The Alps", "admin1": "15", "type": "populated place"}, "id": 3488296, "geometry": {"type": "Point", "coordinates": [-77.51667, 18.33333]}}, {"type": "Feature", "properties": {"country": "MX", "references": [[78, 86], [523, 531], [2972, 2980], [3086, 3094]], "confidence": 1.0, "name": "Himalaya", "admin1": "05", "type": "populated place"}, "id": 8940071, "geometry": {"type": "Point", "coordinates": [-93.42778, 16.13917]}}, {"type": "Feature", "properties": {"country": "MH", "references": [[2329, 2350]], "confidence": 1.0, "name": "Likiep Historic Village UNESCO site", "admin1": "180", "type": "historical site"}, "id": 7304133, "geometry": {"type": "Point", "coordinates": [169.30797, 9.82603]}}, {"type": "Feature", "properties": {"country": "VA", "references": [[1218, 1238]], "confidence": 1.0, "name": "Civil Administration Building", "admin1": "", "type": "building(s)"}, "id": 7289967, "geometry": {"type": "Point", "coordinates": [12.45125, 41.90238]}}, {"type": "Feature", "properties": {"country": "IN", "references": [[611, 618], [1994, 2001], [2604, 2611]], "confidence": 1.0, "name": "Haryana", "admin1": "10", "type": "first-order administrative division"}, "id": 1270260, "geometry": {"type": "Point", "coordinates": [76.33333, 29.25]}}, {"type": "Feature", "properties": {"country": "US", "references": [[4644, 4651]], "confidence": 1.0, "name": "Harvard", "admin1": "IL", "type": "populated place"}, "id": 4895282, "geometry": {"type": "Point", "coordinates": [-88.61371, 42.42224]}}, {"type": "Feature", "properties": {"country": "US", "references": [[4470, 4476], [4557, 4563]], "confidence": 1.0, "name": "Herald", "admin1": "CA", "type": "populated place"}, "id": 5356429, "geometry": {"type": "Point", "coordinates": [-121.24439, 38.29575]}}, {"type": "Feature", "properties": {"country": "IN", "references": [[2375, 2381]], "confidence": 1.0, "name": "Kannur", "admin1": "13", "type": "second-order administrative division"}, "id": 1274988, "geometry": {"type": "Point", "coordinates": [75.33333, 12.16667]}}, {"type": "Feature", "properties": {"country": "PK", "references": [[3437, 3456]], "confidence": 1.0, "name": "Election Commission", "admin1": "08", "type": "administrative facility"}, "id": 9803863, "geometry": {"type": "Point", "coordinates": [73.09728, 33.72422]}}, {"type": "Feature", "properties": {"country": "IN", "references": [[524, 537], [1305, 1318]], "confidence": 1.0, "name": "Supreme Court", "admin1": "07", "type": "courthouse"}, "id": 10263314, "geometry": {"type": "Point", "coordinates": [77.24043, 28.62223]}}, {"type": "Feature", "properties": {"country": "IN", "references": [[5561, 5570]], "confidence": 1.0, "name": "Buddh Gaya", "admin1": "34", "type": "populated place"}, "id": 1275389, "geometry": {"type": "Point", "coordinates": [84.9869, 24.69808]}}, {"type": "Feature", "properties": {"country": "MN", "references": [[4672, 4680]], "confidence": 1.0, "name": "Mongolia", "admin1": "00", "type": "independent political entity"}, "id": 2029969, "geometry": {"type": "Point", "coordinates": [105.0, 46.0]}}, {"type": "Feature", "properties": {"country": "IN", "references": [[3053, 3059]], "confidence": 1.0, "name": "Mumbai", "admin1": "16", "type": "seat of a first-order administrative division"}, "id": 1275339, "geometry": {"type": "Point", "coordinates": [72.88261, 19.07283]}}, {"type": "Feature", "properties": {"country": "GM", "references": [[2787, 2793]], "confidence": 1.0, "name": "Badari", "admin1": "04", "type": "populated place"}, "id": 2413956, "geometry": {"type": "Point", "coordinates": [-14.1, 13.33333]}}, {"type": "Feature", "properties": {"country": "NP", "references": [[2230, 2236]], "confidence": 1.0, "name": "Tamche", "admin1": "CR", "type": "populated locality"}, "id": 7995566, "geometry": {"type": "Point", "coordinates": [85.86618, 27.68562]}}, {"type": "Feature", "properties": {"country": "US", "references": [[3136, 3169]], "confidence": 1.0, "name": "University of Southern California", "admin1": "CA", "type": "university"}, "id": 7284975, "geometry": {"type": "Point", "coordinates": [-118.28563, 34.02051]}}, {"type": "Feature", "properties": {"country": "US", "references": [[3171, 3194]], "confidence": 1.0, "name": "Northeastern University", "admin1": "MA", "type": "school"}, "id": 4945866, "geometry": {"type": "Point", "coordinates": [-71.08755, 42.33982]}}, {"type": "Feature", "properties": {"country": "US", "references": [[2759, 2767]], "confidence": 1.0, "name": "New York", "admin1": "NY", "type": "populated place"}, "id": 5128581, "geometry": {"type": "Point", "coordinates": [-74.00597, 40.71427]}}, {"type": "Feature", "properties": {"country": "US", "references": [[3349, 3367]], "confidence": 1.0, "name": "Indiana University", "admin1": "IN", "type": "school"}, "id": 4259408, "geometry": {"type": "Point", "coordinates": [-86.52639, 39.16616]}}, {"type": "Feature", "properties": {"country": "VN", "references": [[957, 964]], "confidence": 1.0, "name": "Vietnam", "admin1": "0", "type": "independent political entity"}, "id": 1562822, "geometry": {"type": "Point", "coordinates": [107.83333, 16.16667]}}, {"type": "Feature", "properties": {"country": "US", "references": [[3196, 3215]], "confidence": 1.0, "name": "Columbia University", "admin1": "NY", "type": "university"}, "id": 5113375, "geometry": {"type": "Point", "coordinates": [-73.96125, 40.80899]}}, {"type": "Feature", "properties": {"country": "US", "references": [[2113, 2135]], "confidence": 1.0, "name": "Texas State University Police Department", "admin1": "TX", "type": "building(s)"}, "id": 9680833, "geometry": {"type": "Point", "coordinates": [-97.94123, 29.88816]}}, {"type": "Feature", "properties": {"country": "US", "references": [[3286, 3315]], "confidence": 1.0, "name": "Pennsylvania State University", "admin1": "PA", "type": "school"}, "id": 5205532, "geometry": {"type": "Point", "coordinates": [-77.85722, 40.80395]}}, {"type": "Feature", "properties": {"country": "US", "references": [[2090, 2095], [2272, 2277], [2717, 2722], [2772, 2777]], "confidence": 1.0, "name": "Texas", "admin1": "TX", "type": "first-order administrative division"}, "id": 4736286, "geometry": {"type": "Point", "coordinates": [-99.25061, 31.25044]}}, {"type": "Feature", "properties": {"country": "SA", "references": [[403, 415]], "confidence": 1.0, "name": "Saudi Arabia", "admin1": "0", "type": "independent political entity"}, "id": 102358, "geometry": {"type": "Point", "coordinates": [45.0, 25.0]}}, {"type": "Feature", "properties": {"country": "US", "references": [[3243, 3265]], "confidence": 1.0, "name": "University of Illinois", "admin1": "IL", "type": "school"}, "id": 4914513, "geometry": {"type": "Point", "coordinates": [-87.60977, 41.89281]}}, {"type": "Feature", "properties": {"country": "KR", "references": [[387, 398]], "confidence": 1.0, "name": "South Korea", "admin1": "00", "type": "independent political entity"}, "id": 1835841, "geometry": {"type": "Point", "coordinates": [127.75, 36.5]}}, {"type": "Feature", "properties": {"country": "BR", "references": [[1070, 1076]], "confidence": 1.0, "name": "Brazil", "admin1": "00", "type": "independent political entity"}, "id": 3469034, "geometry": {"type": "Point", "coordinates": [-55.0, -10.0]}}, {"type": "Feature", "properties": {"country": "US", "references": [[3267, 3284]], "confidence": 1.0, "name": "Purdue University", "admin1": "IN", "type": "school"}, "id": 4925163, "geometry": {"type": "Point", "coordinates": [-86.92251, 40.42809]}}, {"type": "Feature", "properties": {"country": "MX", "references": [[1081, 1087]], "confidence": 1.0, "name": "Mexico", "admin1": "00", "type": "independent political entity"}, "id": 3996063, "geometry": {"type": "Point", "coordinates": [-102.0, 23.0]}}, {"type": "Feature", "properties": {"country": "US", "references": [[3217, 3241]], "confidence": 1.0, "name": "Arizona State University Tempe Campus", "admin1": "AZ", "type": "school"}, "id": 5551736, "geometry": {"type": "Point", "coordinates": [-111.93355, 33.41983]}}, {"type": "Feature", "properties": {"country": "US", "references": [[3317, 3344]], "confidence": 1.0, "name": "City University of New York Brooklyn College", "admin1": "NY", "type": "school"}, "id": 5112739, "geometry": {"type": "Point", "coordinates": [-73.95153, 40.63149]}}, {"type": "Feature", "properties": {"country": "US", "references": [[3115, 3134]], "confidence": 1.0, "name": "New York University", "admin1": "NY", "type": "university"}, "id": 5128634, "geometry": {"type": "Point", "coordinates": [-73.99597, 40.72871]}}, {"type": "Feature", "properties": {"country": "MX", "references": [[1055, 1061]], "confidence": 1.0, "name": "La Ca\u00f1ada", "admin1": "22", "type": "populated place"}, "id": 4003211, "geometry": {"type": "Point", "coordinates": [-100.33275, 20.60805]}}, {"type": "Feature", "properties": {"country": "AE", "references": [[2329, 2334], [3573, 3578]], "confidence": 1.0, "name": "Al Y\u0101b\u0101n", "admin1": "01", "type": "diplomatic facility"}, "id": 8052715, "geometry": {"type": "Point", "coordinates": [54.36478, 24.45874]}}, {"type": "Feature", "properties": {"country": "NP", "references": [[2805, 2811], [3007, 3013], [3069, 3075], [3182, 3188], [3272, 3278], [3431, 3437], [3567, 3573], [3735, 3741], [3880, 3886], [3965, 3971], [4101, 4107], [4275, 4281], [4353, 4359]], "confidence": 1.0, "name": "B\u0101rp\u0101k", "admin1": "00", "type": "administrative division"}, "id": 10328414, "geometry": {"type": "Point", "coordinates": [84.75255, 28.23072]}}, {"type": "Feature", "properties": {"country": "MY", "references": [[1120, 1128], [5035, 5043]], "confidence": 1.0, "name": "Malaysia", "admin1": "0", "type": "independent political entity"}, "id": 1733045, "geometry": {"type": "Point", "coordinates": [112.5, 2.5]}}, {"type": "Feature", "properties": {"country": "AF", "references": [[4608, 4614], [4694, 4700]], "confidence": 1.0, "name": "Gh\u014drkah", "admin1": "37", "type": "intermittent stream"}, "id": 1140958, "geometry": {"type": "Point", "coordinates": [69.49077, 33.34664]}}, {"type": "Feature", "properties": {"country": "NP", "references": [[1398, 1406]], "confidence": 1.0, "name": "Dhunchet", "admin1": "WR", "type": "populated locality"}, "id": 7948943, "geometry": {"type": "Point", "coordinates": [84.92624, 28.17256]}}, {"type": "Feature", "properties": {"country": "ID", "references": [[2079, 2082], [2240, 2243]], "confidence": 1.0, "name": "Lereh", "admin1": "36", "type": "populated place"}, "id": 1637924, "geometry": {"type": "Point", "coordinates": [139.9, -3.13333]}}, {"type": "Feature", "properties": {"country": "EG", "references": [[256, 281]], "confidence": 1.0, "name": "Munaz\u0327z\u0327amat a\u015f \u015ei\u1e29\u1e29ah al \u2018\u0100lam\u012byah", "admin1": "11", "type": "building(s)"}, "id": 8020229, "geometry": {"type": "Point", "coordinates": [31.3481, 30.0643]}}, {"type": "Feature", "properties": {"country": "US", "references": [[237, 266]], "confidence": 1.0, "name": "Linn County Department of Health Services Office", "admin1": "OR", "type": "building(s)"}, "id": 8486032, "geometry": {"type": "Point", "coordinates": [-123.10731, 44.63491]}}, {"type": "Feature", "properties": {"country": "US", "references": [[3436, 3449]], "confidence": 1.0, "name": "Massachusetts", "admin1": "MA", "type": "first-order administrative division"}, "id": 6254926, "geometry": {"type": "Point", "coordinates": [-71.10832, 42.36565]}}, {"type": "Feature", "properties": {"country": "IN", "references": [[4827, 4834]], "confidence": 1.0, "name": "Gujarat", "admin1": "09", "type": "first-order administrative division"}, "id": 1270770, "geometry": {"type": "Point", "coordinates": [71.75, 23.0]}}, {"type": "Feature", "properties": {"country": "NP", "references": [[353, 357]], "confidence": 1.0, "name": "Il\u0101m", "admin1": "ER", "type": "third-order administrative division"}, "id": 1283334, "geometry": {"type": "Point", "coordinates": [87.91667, 26.91667]}}, {"type": "Feature", "properties": {"country": "AE", "references": [[155, 173], [5453, 5471]], "confidence": 1.0, "name": "Wiz\u0101rat a\u015f \u015ei\u1e29\u1e29ah", "admin1": "03", "type": "administrative facility"}, "id": 8225395, "geometry": {"type": "Point", "coordinates": [55.30256, 25.25045]}}, {"type": "Feature", "properties": {"country": "US", "references": [[44, 66]], "confidence": 1.0, "name": "Harvard Medical School", "admin1": "MA", "type": "school"}, "id": 7536029, "geometry": {"type": "Point", "coordinates": [-71.10513, 42.33574]}}, {"type": "Feature", "properties": {"country": "US", "references": [[5719, 5735], [5962, 5978]], "confidence": 1.0, "name": "Grinnell College", "admin1": "IA", "type": "school"}, "id": 4859347, "geometry": {"type": "Point", "coordinates": [-92.72206, 41.74844]}}, {"type": "Feature", "properties": {"country": "US", "references": [[3074, 3088]], "confidence": 1.0, "name": "The World Bank", "admin1": "DC", "type": "building(s)"}, "id": 4140706, "geometry": {"type": "Point", "coordinates": [-77.0422, 38.89956]}}, {"type": "Feature", "properties": {"country": "AE", "references": [[3270, 3276]], "confidence": 1.0, "name": "Farans\u0101", "admin1": "03", "type": "diplomatic facility"}, "id": 8226141, "geometry": {"type": "Point", "coordinates": [55.31255, 25.26367]}}, {"type": "Feature", "properties": {"country": "US", "references": [[1217, 1241]], "confidence": 1.0, "name": "Georgia State University", "admin1": "GA", "type": "school"}, "id": 4196993, "geometry": {"type": "Point", "coordinates": [-84.3859, 33.75357]}}, {"type": "Feature", "properties": {"country": "SL", "references": [[511, 523]], "confidence": 1.0, "name": "Sierra Leone", "admin1": "00", "type": "independent political entity"}, "id": 2403846, "geometry": {"type": "Point", "coordinates": [-11.5, 8.5]}}, {"type": "Feature", "properties": {"country": "SD", "references": [[2740, 2745]], "confidence": 1.0, "name": "Sudan", "admin1": "00", "type": "independent political entity"}, "id": 366755, "geometry": {"type": "Point", "coordinates": [30.0, 16.0]}}, {"type": "Feature", "properties": {"country": "US", "references": [[234, 241]], "confidence": 1.0, "name": "Atlanta", "admin1": "GA", "type": "seat of a first-order administrative division"}, "id": 4180439, "geometry": {"type": "Point", "coordinates": [-84.38798, 33.749]}}, {"type": "Feature", "properties": {"country": "AO", "references": [[58, 69], [313, 324], [1871, 1882], [2866, 2877]], "confidence": 1.0, "name": "Angola", "admin1": "00", "type": "independent political entity"}, "id": 3351879, "geometry": {"type": "Point", "coordinates": [18.5, -12.5]}}, {"type": "Feature", "properties": {"country": "GN", "references": [[2967, 2976]], "confidence": 1.0, "name": "Gueckedou", "admin1": "N", "type": "seat of a second-order administrative division"}, "id": 2420562, "geometry": {"type": "Point", "coordinates": [-10.1336, 8.56744]}}, {"type": "Feature", "properties": {"country": "GN", "references": [[500, 506], [2980, 2986]], "confidence": 1.0, "name": "Guinea", "admin1": "00", "type": "independent political entity"}, "id": 2420477, "geometry": {"type": "Point", "coordinates": [-10.66667, 10.83333]}}, {"type": "Feature", "properties": {"country": "LR", "references": [[491, 498], [2427, 2434], [3133, 3140], [3662, 3669], [4314, 4321]], "confidence": 1.0, "name": "Liberia", "admin1": "00", "type": "independent political entity"}, "id": 2275384, "geometry": {"type": "Point", "coordinates": [-9.5, 6.5]}}, {"type": "Feature", "properties": {"country": "CD", "references": [[1824, 1852]], "confidence": 1.0, "name": "Democratic Republic of the Congo", "admin1": "00", "type": "independent political entity"}, "id": 203312, "geometry": {"type": "Point", "coordinates": [23.5, -2.5]}}, {"type": "Feature", "properties": {"country": "GA", "references": [[1709, 1716]], "confidence": 1.0, "name": "Mink\u00e9b\u00e9", "admin1": "09", "type": "populated place"}, "id": 2398384, "geometry": {"type": "Point", "coordinates": [12.85007, 1.74525]}}, {"type": "Feature", "properties": {"country": "UG", "references": [[3275, 3281]], "confidence": 1.0, "name": "Uganda", "admin1": "0", "type": "independent political entity"}, "id": 226074, "geometry": {"type": "Point", "coordinates": [32.5, 1.25]}}, {"type": "Feature", "properties": {"country": "NULL", "references": [[354, 368]], "confidence": 1.0, "name": "Central Africa", "admin1": "", "type": "region"}, "id": 7729886, "geometry": {"type": "Point", "coordinates": [24.69727, -2.02107]}}, {"type": "Feature", "properties": {"country": "GA", "references": [[1978, 1983]], "confidence": 1.0, "name": "Gabon", "admin1": "00", "type": "independent political entity"}, "id": 2400553, "geometry": {"type": "Point", "coordinates": [11.75, -1.0]}}, {"type": "Feature", "properties": {"country": "US", "references": [[1938, 1945]], "confidence": 1.0, "name": "Madison", "admin1": "WI", "type": "seat of a first-order administrative division"}, "id": 5261457, "geometry": {"type": "Point", "coordinates": [-89.40123, 43.07305]}}, {"type": "Feature", "properties": {"country": "US", "references": [[541, 559]], "confidence": 1.0, "name": "University of Iowa", "admin1": "IA", "type": "school"}, "id": 4879820, "geometry": {"type": "Point", "coordinates": [-91.53581, 41.66387]}}, {"type": "Feature", "properties": {"country": "US", "references": [[1911, 1934]], "confidence": 1.0, "name": "University of Wisconsin", "admin1": "WI", "type": "school"}, "id": 5276825, "geometry": {"type": "Point", "coordinates": [-90.13346, 44.64107]}}, {"type": "Feature", "properties": {"country": "US", "references": [[1767, 1796], [4332, 4361]], "confidence": 1.0, "name": "National Institutes of Health", "admin1": "MD", "type": "building(s)"}, "id": 4363517, "geometry": {"type": "Point", "coordinates": [-77.10192, 38.99761]}}, {"type": "Feature", "properties": {"country": "NULL", "references": [[4308, 4314]], "confidence": 1.0, "name": "Europe", "admin1": "", "type": "continent"}, "id": 6255148, "geometry": {"type": "Point", "coordinates": [9.14062, 48.69096]}}, {"type": "Feature", "properties": {"country": "GB", "references": [[3610, 3619]], "confidence": 1.0, "name": "Edinburgh", "admin1": "SCT", "type": "seat of a first-order administrative division"}, "id": 2650225, "geometry": {"type": "Point", "coordinates": [-3.19648, 55.95206]}}, {"type": "Feature", "properties": {"country": "GB", "references": [[3584, 3606]], "confidence": 1.0, "name": "Heriot-Watt University", "admin1": "SCT", "type": "school"}, "id": 10858715, "geometry": {"type": "Point", "coordinates": [-3.32268, 55.91073]}}, {"type": "Feature", "properties": {"country": "US", "references": [[1995, 2004]], "confidence": 1.0, "name": "San Diego", "admin1": "CA", "type": "seat of a second-order administrative division"}, "id": 5391811, "geometry": {"type": "Point", "coordinates": [-117.15726, 32.71533]}}, {"type": "Feature", "properties": {"country": "US", "references": [[4905, 4912]], "confidence": 1.0, "name": "Memphis", "admin1": "TN", "type": "seat of a second-order administrative division"}, "id": 4641239, "geometry": {"type": "Point", "coordinates": [-90.04898, 35.14953]}}, {"type": "Feature", "properties": {"country": "US", "references": [[1811, 1817]], "confidence": 1.0, "name": "Gilead", "admin1": "ME", "type": "populated place"}, "id": 4965217, "geometry": {"type": "Point", "coordinates": [-70.97285, 44.39423]}}, {"type": "Feature", "properties": {"country": "LR", "references": [[424, 432]], "confidence": 1.0, "name": "Monrovia", "admin1": "14", "type": "capital of a political entity"}, "id": 2274895, "geometry": {"type": "Point", "coordinates": [-10.7969, 6.30054]}}, {"type": "Feature", "properties": {"country": "US", "references": [[1967, 1991]], "confidence": 1.0, "name": "University of California Extension", "admin1": "CA", "type": "school"}, "id": 5404877, "geometry": {"type": "Point", "coordinates": [-117.15003, 32.7395]}}, {"type": "Feature", "properties": {"country": "US", "references": [[3066, 3074]], "confidence": 1.0, "name": "Nebraska", "admin1": "NE", "type": "first-order administrative division"}, "id": 5073708, "geometry": {"type": "Point", "coordinates": [-99.75067, 41.50028]}}, {"type": "Feature", "properties": {"country": "US", "references": [[3079, 3087]], "confidence": 1.0, "name": "Bethesda", "admin1": "MD", "type": "populated place"}, "id": 4348599, "geometry": {"type": "Point", "coordinates": [-77.10026, 38.98067]}}, {"type": "Feature", "properties": {"country": "US", "references": [[4199, 4205]], "confidence": 1.0, "name": "Dallas", "admin1": "TX", "type": "seat of a second-order administrative division"}, "id": 4684888, "geometry": {"type": "Point", "coordinates": [-96.80667, 32.78306]}}, {"type": "Feature", "properties": {"country": "BF", "references": [[3006, 3013]], "confidence": 1.0, "name": "Soussou", "admin1": "10", "type": "populated place"}, "id": 2355201, "geometry": {"type": "Point", "coordinates": [-2.35165, 13.51865]}}, {"type": "Feature", "properties": {"country": "GN", "references": [[427, 433], [899, 905]], "confidence": 1.0, "name": "Kindia", "admin1": "D", "type": "first-order administrative division"}, "id": 8335088, "geometry": {"type": "Point", "coordinates": [-13.21333, 10.08667]}}, {"type": "Feature", "properties": {"country": "MF", "references": [[871, 881]], "confidence": 1.0, "name": "Saint Martin", "admin1": "00", "type": "section of independent political entity"}, "id": 3578421, "geometry": {"type": "Point", "coordinates": [-63.06667, 18.06667]}}, {"type": "Feature", "properties": {"country": "US", "references": [[1921, 1942]], "confidence": 1.0, "name": "University of Florida Library", "admin1": "FL", "type": "library"}, "id": 4176245, "geometry": {"type": "Point", "coordinates": [-82.34705, 29.75024]}}, {"type": "Feature", "properties": {"country": "US", "references": [[2088, 2102]], "confidence": 1.0, "name": "Gulf of Mexico Seaplane Base", "admin1": "FL", "type": "airport"}, "id": 4157685, "geometry": {"type": "Point", "coordinates": [-81.75176, 24.5807]}}, {"type": "Feature", "properties": {"country": "US", "references": [[2290, 2305]], "confidence": 1.0, "name": "Central America Mine", "admin1": "CO", "type": "mine(s)"}, "id": 5416575, "geometry": {"type": "Point", "coordinates": [-105.63611, 39.7711]}}, {"type": "Feature", "properties": {"country": "NULL", "references": [[21, 36], [1032, 1047]], "confidence": 1.0, "name": "Central America", "admin1": "", "type": "region"}, "id": 7729892, "geometry": {"type": "Point", "coordinates": [-99.66797, 25.32417]}}, {"type": "Feature", "properties": {"country": "NULL", "references": [[1049, 1062]], "confidence": 1.0, "name": "South America", "admin1": "", "type": "continent"}, "id": 6255150, "geometry": {"type": "Point", "coordinates": [-57.65625, -14.60485]}}, {"type": "Feature", "properties": {"country": "US", "references": [[1106, 1138]], "confidence": 1.0, "name": "Pan American Health Organization", "admin1": "DC", "type": "building(s)"}, "id": 4139946, "geometry": {"type": "Point", "coordinates": [-77.0497, 38.89622]}}, {"type": "Feature", "properties": {"country": "US", "references": [[1069, 1076], [1595, 1602], [1658, 1665], [2053, 2060], [2521, 2528]], "confidence": 1.0, "name": "Florida", "admin1": "FL", "type": "first-order administrative division"}, "id": 4155751, "geometry": {"type": "Point", "coordinates": [-82.5001, 28.75054]}}, {"type": "Feature", "properties": {"country": "US", "references": [[1726, 1732], [2048, 2054]], "confidence": 1.0, "name": "Havana", "admin1": "IL", "type": "seat of a second-order administrative division"}, "id": 4895336, "geometry": {"type": "Point", "coordinates": [-90.06095, 40.30004]}}, {"type": "Feature", "properties": {"country": "CY", "references": [[3899, 3911]], "confidence": 1.0, "name": "Akamas Range", "admin1": "06", "type": "military installation"}, "id": 414307, "geometry": {"type": "Point", "coordinates": [32.3, 35.05]}}, {"type": "Feature", "properties": {"country": "US", "references": [[4111, 4115]], "confidence": 1.0, "name": "West", "admin1": "TX", "type": "populated place"}, "id": 4740686, "geometry": {"type": "Point", "coordinates": [-97.09167, 31.80238]}}, {"type": "Feature", "properties": {"country": "CU", "references": [[1191, 1195], [2973, 2977], [4484, 4488], [4627, 4631]], "confidence": 1.0, "name": "Cuba", "admin1": "00", "type": "independent political entity"}, "id": 3562981, "geometry": {"type": "Point", "coordinates": [-79.5, 22.0]}}, {"type": "Feature", "properties": {"country": "SL", "references": [[987, 997], [3788, 3798], [3922, 3932]], "confidence": 1.0, "name": "Kerry Town", "admin1": "04", "type": "populated place"}, "id": 2566367, "geometry": {"type": "Point", "coordinates": [-13.08631, 8.25733]}}, {"type": "Feature", "properties": {"country": "US", "references": [[3867, 3873]], "confidence": 1.0, "name": "Geneva", "admin1": "IL", "type": "seat of a second-order administrative division"}, "id": 4893591, "geometry": {"type": "Point", "coordinates": [-88.30535, 41.88753]}}, {"type": "Feature", "properties": {"country": "SL", "references": [[4896, 4904]], "confidence": 1.0, "name": "Freetown", "admin1": "04", "type": "capital of a political entity"}, "id": 2409306, "geometry": {"type": "Point", "coordinates": [-13.22994, 8.484]}}, {"type": "Feature", "properties": {"country": "US", "references": [[4244, 4247]], "confidence": 1.0, "name": "Doubletree Hotel, Washington D.C", "admin1": "DC", "type": "hotel"}, "id": 6487217, "geometry": {"type": "Point", "coordinates": [-77.03549, 38.90772]}}, {"type": "Feature", "properties": {"country": "US", "references": [[4194, 4228]], "confidence": 1.0, "name": "Worcester Foundation for Biomedical Research", "admin1": "MA", "type": "building(s)"}, "id": 4956208, "geometry": {"type": "Point", "coordinates": [-71.73007, 42.2862]}}, {"type": "Feature", "properties": {"country": "US", "references": [[1586, 1595]], "confidence": 1.0, "name": "Baltimore", "admin1": "MD", "type": "seat of a second-order administrative division"}, "id": 4347778, "geometry": {"type": "Point", "coordinates": [-76.61219, 39.29038]}}, {"type": "Feature", "properties": {"country": "GB", "references": [[1859, 1882]], "confidence": 1.0, "name": "University of Cambridge", "admin1": "ENG", "type": "university"}, "id": 7288046, "geometry": {"type": "Point", "coordinates": [0.12, 52.203]}}, {"type": "Feature", "properties": {"country": "CD", "references": [[820, 841]], "confidence": 1.0, "name": "Virunga National Park", "admin1": "09", "type": "nature reserve"}, "id": 6942127, "geometry": {"type": "Point", "coordinates": [29.16667, 0.91667]}}, {"type": "Feature", "properties": {"country": "CG", "references": [[3722, 3743]], "confidence": 1.0, "name": "Republic of the Congo", "admin1": "00", "type": "independent political entity"}, "id": 2260494, "geometry": {"type": "Point", "coordinates": [15.5, -1.0]}}, {"type": "Feature", "properties": {"country": "US", "references": [[516, 537], [2080, 2101]], "confidence": 1.0, "name": "Department of Defense Withdrawal", "admin1": "NM", "type": "park"}, "id": 5464820, "geometry": {"type": "Point", "coordinates": [-106.41919, 35.00533]}}, {"type": "Feature", "properties": {"country": "US", "references": [[2760, 2765]], "confidence": 1.0, "name": "Scott", "admin1": "LA", "type": "populated place"}, "id": 4341033, "geometry": {"type": "Point", "coordinates": [-92.09457, 30.23576]}}, {"type": "Feature", "properties": {"country": "US", "references": [[226, 246], [2020, 2040]], "confidence": 1.0, "name": "Scott Air Force Base", "admin1": "IL", "type": "populated place"}, "id": 7259489, "geometry": {"type": "Point", "coordinates": [-89.85035, 38.5427]}}, {"type": "Feature", "properties": {"country": "BR", "references": [[2974, 2977]], "confidence": 1.0, "name": "Rio de Janeiro", "admin1": "21", "type": "seat of a first-order administrative division"}, "id": 3451190, "geometry": {"type": "Point", "coordinates": [-43.2075, -22.90278]}}, {"type": "Feature", "properties": {"country": "GB", "references": [[4413, 4439]], "confidence": 1.0, "name": "lse", "admin1": "ENG", "type": "university"}, "id": 6619894, "geometry": {"type": "Point", "coordinates": [-0.11645, 51.51398]}}, {"type": "Feature", "properties": {"country": "RU", "references": [[2762, 2768]], "confidence": 1.0, "name": "Russia", "admin1": "0", "type": "independent political entity"}, "id": 2017370, "geometry": {"type": "Point", "coordinates": [100.0, 60.0]}}, {"type": "Feature", "properties": {"country": "BR", "references": [[1178, 1184], [1437, 1443], [1552, 1558]], "confidence": 1.0, "name": "Recife", "admin1": "30", "type": "seat of a first-order administrative division"}, "id": 3390760, "geometry": {"type": "Point", "coordinates": [-34.88111, -8.05389]}}, {"type": "Feature", "properties": {"country": "DE", "references": [[5564, 5571]], "confidence": 1.0, "name": "Marburg an der Lahn", "admin1": "05", "type": "seat of a third-order administrative division"}, "id": 2873759, "geometry": {"type": "Point", "coordinates": [8.77069, 50.80904]}}, {"type": "Feature", "properties": {"country": "IT", "references": [[274, 278]], "confidence": 1.0, "name": "Gavi", "admin1": "12", "type": "seat of a third-order administrative division"}, "id": 3176269, "geometry": {"type": "Point", "coordinates": [8.80717, 44.68627]}}, {"type": "Feature", "properties": {"country": "PF", "references": [[3490, 3506]], "confidence": 1.0, "name": "French Polynesia", "admin1": "00", "type": "dependent political entity"}, "id": 4030656, "geometry": {"type": "Point", "coordinates": [-140.0, -15.0]}}, {"type": "Feature", "properties": {"country": "KE", "references": [[3186, 3191]], "confidence": 1.0, "name": "Kenya", "admin1": "00", "type": "independent political entity"}, "id": 192950, "geometry": {"type": "Point", "coordinates": [38.0, 1.0]}}, {"type": "Feature", "properties": {"country": "SS", "references": [[3196, 3207]], "confidence": 1.0, "name": "South Sudan", "admin1": "0", "type": "independent political entity"}, "id": 7909807, "geometry": {"type": "Point", "coordinates": [30.0, 7.5]}}, {"type": "Feature", "properties": {"country": "US", "references": [[2708, 2732]], "confidence": 1.0, "name": "Johns Hopkins University", "admin1": "MD", "type": "school"}, "id": 4359528, "geometry": {"type": "Point", "coordinates": [-76.62057, 39.32898]}}, {"type": "Feature", "properties": {"country": "US", "references": [[2734, 2750]], "confidence": 1.0, "name": "Emory University", "admin1": "GA", "type": "school"}, "id": 4193413, "geometry": {"type": "Point", "coordinates": [-84.32348, 33.79138]}}, {"type": "Feature", "properties": {"country": "US", "references": [[4971, 4990]], "confidence": 1.0, "name": "Stanford University", "admin1": "CA", "type": "university"}, "id": 5398590, "geometry": {"type": "Point", "coordinates": [-122.17024, 37.42716]}}, {"type": "Feature", "properties": {"country": "US", "references": [[5049, 5077]], "confidence": 1.0, "name": "Food and Drug Administration Building", "admin1": "DC", "type": "building(s)"}, "id": 4138673, "geometry": {"type": "Point", "coordinates": [-77.01442, 38.88539]}}, {"type": "Feature", "properties": {"country": "US", "references": [[4993, 5011]], "confidence": 1.0, "name": "Hoover Institution on War, Revolution and Peace", "admin1": "CA", "type": "building(s)"}, "id": 5357902, "geometry": {"type": "Point", "coordinates": [-122.16719, 37.42744]}}, {"type": "Feature", "properties": {"country": "CN", "references": [[2099, 2104]], "confidence": 1.0, "name": "Lhasa", "admin1": "14", "type": "seat of a first-order administrative division"}, "id": 1280737, "geometry": {"type": "Point", "coordinates": [91.1, 29.65]}}, {"type": "Feature", "properties": {"country": "NG", "references": [[442, 446], [1451, 1455], [1541, 1545]], "confidence": 1.0, "name": "Kogi State", "admin1": "41", "type": "first-order administrative division"}, "id": 2597364, "geometry": {"type": "Point", "coordinates": [6.75, 7.75]}}, {"type": "Feature", "properties": {"country": "NG", "references": [[434, 440], [783, 789], [1122, 1128]], "confidence": 1.0, "name": "Ebonyi State", "admin1": "53", "type": "first-order administrative division"}, "id": 2595345, "geometry": {"type": "Point", "coordinates": [8.08333, 6.25]}}, {"type": "Feature", "properties": {"country": "NG", "references": [[2108, 2113]], "confidence": 1.0, "name": "Borno State", "admin1": "27", "type": "first-order administrative division"}, "id": 2346794, "geometry": {"type": "Point", "coordinates": [13.0, 11.5]}}, {"type": "Feature", "properties": {"country": "NG", "references": [[451, 455], [1307, 1317], [1524, 1528]], "confidence": 1.0, "name": "Ondo State", "admin1": "48", "type": "first-order administrative division"}, "id": 2326168, "geometry": {"type": "Point", "coordinates": [5.08333, 7.16667]}}, {"type": "Feature", "properties": {"country": "NG", "references": [[1992, 1999], [3052, 3059]], "confidence": 1.0, "name": "Nigeria", "admin1": "00", "type": "independent political entity"}, "id": 2328926, "geometry": {"type": "Point", "coordinates": [8.0, 10.0]}}, {"type": "Feature", "properties": {"country": "US", "references": [[3410, 3417]], "confidence": 1.0, "name": "Montana", "admin1": "MT", "type": "first-order administrative division"}, "id": 5667009, "geometry": {"type": "Point", "coordinates": [-109.75102, 47.00025]}}, {"type": "Feature", "properties": {"country": "US", "references": [[1480, 1498], [1750, 1768]], "confidence": 1.0, "name": "Cornell University", "admin1": "IL", "type": "school"}, "id": 4888787, "geometry": {"type": "Point", "coordinates": [-87.63255, 41.88031]}}, {"type": "Feature", "properties": {"country": "US", "references": [[3421, 3427]], "confidence": 1.0, "name": "Nevada", "admin1": "NV", "type": "first-order administrative division"}, "id": 5509151, "geometry": {"type": "Point", "coordinates": [-116.75119, 39.25021]}}, {"type": "Feature", "properties": {"country": "US", "references": [[870, 876]], "confidence": 1.0, "name": "Hawaii", "admin1": "HI", "type": "first-order administrative division"}, "id": 5855797, "geometry": {"type": "Point", "coordinates": [-156.50028, 20.75028]}}, {"type": "Feature", "properties": {"country": "GB", "references": [[732, 739]], "confidence": 1.0, "name": "Norwich", "admin1": "ENG", "type": "seat of a second-order administrative division"}, "id": 2641181, "geometry": {"type": "Point", "coordinates": [1.29834, 52.62783]}}, {"type": "Feature", "properties": {"country": "UY", "references": [[2664, 2670]], "confidence": 1.0, "name": "UNICEF Uruguay", "admin1": "10", "type": "building(s)"}, "id": 6698654, "geometry": {"type": "Point", "coordinates": [-56.16495, -34.89747]}}, {"type": "Feature", "properties": {"country": "UG", "references": [[3256, 3264]], "confidence": 1.0, "name": "Kamwenge", "admin1": "W", "type": "seat of a second-order administrative division"}, "id": 232371, "geometry": {"type": "Point", "coordinates": [30.45393, 0.1866]}}, {"type": "Feature", "properties": {"country": "MG", "references": [[457, 467]], "confidence": 1.0, "name": "Madagascar", "admin1": "00", "type": "independent political entity"}, "id": 1062947, "geometry": {"type": "Point", "coordinates": [47.0, -20.0]}}, {"type": "Feature", "properties": {"country": "UG", "references": [[1325, 1330]], "confidence": 1.0, "name": "Kween", "admin1": "E", "type": "third-order administrative division"}, "id": 7732258, "geometry": {"type": "Point", "coordinates": [34.57341, 1.38707]}}, {"type": "Feature", "properties": {"country": "DE", "references": [[1742, 1749], [3440, 3447]], "confidence": 1.0, "name": "Germany", "admin1": "00", "type": "independent political entity"}, "id": 2921044, "geometry": {"type": "Point", "coordinates": [10.5, 51.5]}}, {"type": "Feature", "properties": {"country": "CD", "references": [[725, 730]], "confidence": 1.0, "name": "Ebola", "admin1": "02", "type": "stream"}, "id": 216906, "geometry": {"type": "Point", "coordinates": [20.9605, 3.32354]}}, {"type": "Feature", "properties": {"country": "CD", "references": [[3798, 3804]], "confidence": 1.0, "name": "Likati", "admin1": "09", "type": "populated place"}, "id": 211872, "geometry": {"type": "Point", "coordinates": [23.88208, 3.36448]}}, {"type": "Feature", "properties": {"country": "GN", "references": [[2655, 2662]], "confidence": 1.0, "name": "Conakry", "admin1": "04", "type": "capital of a political entity"}, "id": 2422465, "geometry": {"type": "Point", "coordinates": [-13.67729, 9.53795]}}, {"type": "Feature", "properties": {"country": "CF", "references": [[362, 386]], "confidence": 1.0, "name": "Central African Republic", "admin1": "00", "type": "independent political entity"}, "id": 239880, "geometry": {"type": "Point", "coordinates": [21.0, 7.0]}}, {"type": "Feature", "properties": {"country": "US", "references": [[4234, 4242]], "confidence": 1.0, "name": "Virginia", "admin1": "MN", "type": "populated place"}, "id": 5051468, "geometry": {"type": "Point", "coordinates": [-92.53657, 47.52326]}}, {"type": "Feature", "properties": {"country": "US", "references": [[4289, 4300]], "confidence": 1.0, "name": "Paynesville", "admin1": "MN", "type": "populated place"}, "id": 5040936, "geometry": {"type": "Point", "coordinates": [-94.71195, 45.38052]}}, {"type": "Feature", "properties": {"country": "AO", "references": [[4342, 4347]], "confidence": 1.0, "name": "Sinje", "admin1": "06", "type": "stream"}, "id": 3346069, "geometry": {"type": "Point", "coordinates": [14.9646, -11.02549]}}, {"type": "Feature", "properties": {"country": "LR", "references": [[273, 284], [3904, 3915]], "confidence": 1.0, "name": "Montserrado County", "admin1": "14", "type": "first-order administrative division"}, "id": 2274890, "geometry": {"type": "Point", "coordinates": [-10.56667, 6.5]}}, {"type": "Feature", "properties": {"country": "LR", "references": [[264, 271], [3917, 3924], [4322, 4336]], "confidence": 1.0, "name": "Margibi County", "admin1": "17", "type": "first-order administrative division"}, "id": 2588491, "geometry": {"type": "Point", "coordinates": [-10.31667, 6.55]}}, {"type": "Feature", "properties": {"country": "LR", "references": [[286, 302], [4351, 4374], [6974, 6990]], "confidence": 1.0, "name": "Grand Cape Mount County", "admin1": "12", "type": "first-order administrative division"}, "id": 2276627, "geometry": {"type": "Point", "coordinates": [-11.05, 7.13333]}}, {"type": "Feature", "properties": {"country": "LR", "references": [[3926, 3930], [4181, 4192], [6825, 6836], [7010, 7021]], "confidence": 1.0, "name": "Bomi County", "admin1": "15", "type": "first-order administrative division"}, "id": 2278324, "geometry": {"type": "Point", "coordinates": [-10.81667, 6.73333]}}, {"type": "Feature", "properties": {"country": "LR", "references": [[6992, 7000]], "confidence": 1.0, "name": "Gbarpolu County", "admin1": "21", "type": "first-order administrative division"}, "id": 2593119, "geometry": {"type": "Point", "coordinates": [-10.31667, 7.36667]}}, {"type": "Feature", "properties": {"country": "LR", "references": [[2834, 2846], [7544, 7556]], "confidence": 1.0, "name": "New Kru Town", "admin1": "14", "type": "populated place"}, "id": 2274747, "geometry": {"type": "Point", "coordinates": [-10.78333, 6.36667]}}, {"type": "Feature", "properties": {"country": "LR", "references": [[4169, 4179], [6813, 6823]], "confidence": 1.0, "name": "Tubmanburg", "admin1": "15", "type": "seat of a first-order administrative division"}, "id": 2273435, "geometry": {"type": "Point", "coordinates": [-10.8211, 6.87064]}}, {"type": "Feature", "properties": {"country": "LR", "references": [[2811, 2830], [7521, 7540]], "confidence": 1.0, "name": "Redemption Hospital", "admin1": "14", "type": "hospital"}, "id": 10378528, "geometry": {"type": "Point", "coordinates": [-10.79189, 6.36991]}}, {"type": "Feature", "properties": {"country": "NULL", "references": [[6676, 6689]], "confidence": 1.0, "name": "North America", "admin1": "", "type": "continent"}, "id": 6255149, "geometry": {"type": "Point", "coordinates": [-100.54688, 46.07323]}}, {"type": "Feature", "properties": {"country": "US", "references": [[6288, 6294]], "confidence": 1.0, "name": "Bausch Creek", "admin1": "OR", "type": "stream"}, "id": 5712825, "geometry": {"type": "Point", "coordinates": [-123.06011, 45.60567]}}, {"type": "Feature", "properties": {"country": "US", "references": [[1580, 1591]], "confidence": 1.0, "name": "Chapel Hill", "admin1": "NC", "type": "populated place"}, "id": 4460162, "geometry": {"type": "Point", "coordinates": [-79.05584, 35.9132]}}, {"type": "Feature", "properties": {"country": "US", "references": [[1548, 1576]], "confidence": 1.0, "name": "University of North Carolina", "admin1": "NC", "type": "school"}, "id": 4496346, "geometry": {"type": "Point", "coordinates": [-79.04862, 35.91014]}}, {"type": "Feature", "properties": {"country": "MZ", "references": [[2067, 2078]], "confidence": 1.0, "name": "Mozambique", "admin1": "00", "type": "independent political entity"}, "id": 1036973, "geometry": {"type": "Point", "coordinates": [35.0, -18.25]}}, {"type": "Feature", "properties": {"country": "US", "references": [[4666, 4677]], "confidence": 1.0, "name": "Los Angeles", "admin1": "CA", "type": "seat of a second-order administrative division"}, "id": 5368361, "geometry": {"type": "Point", "coordinates": [-118.24368, 34.05223]}}, {"type": "Feature", "properties": {"country": "MG", "references": [[2497, 2508]], "confidence": 1.0, "name": "Antsiranana", "admin1": "7670842", "type": "seat of a first-order administrative division"}, "id": 1069129, "geometry": {"type": "Point", "coordinates": [49.29171, -12.2787]}}, {"type": "Feature", "properties": {"country": "SL", "references": [[131, 137]], "confidence": 1.0, "name": "Kabala", "admin1": "02", "type": "populated place"}, "id": 2408329, "geometry": {"type": "Point", "coordinates": [-11.55256, 9.58893]}}, {"type": "Feature", "properties": {"country": "ML", "references": [[846, 850]], "confidence": 1.0, "name": "Mali", "admin1": "00", "type": "independent political entity"}, "id": 2453866, "geometry": {"type": "Point", "coordinates": [-2.0, 18.0]}}, {"type": "Feature", "properties": {"country": "ES", "references": [[1922, 1928]], "confidence": 1.0, "name": "M\u00e1laga", "admin1": "51", "type": "seat of a second-order administrative division"}, "id": 2514256, "geometry": {"type": "Point", "coordinates": [-4.42034, 36.72016]}},